     4.01           OBSERVATION DATA    M                   RINEX VERSION / TYPE
GnssLogger          Xiaomi 14           20241214 080232 UTC PGM / RUN BY / DATE
Google GnssLogger                                           MARKER NAME
Unknown                                                     MARKER NUMBER
Unknown             Unknown                                 OBSERVER / AGENCY
Unknown             GnssLogger          v3.1.0.3            REC # / TYPE / VERS
Unknown             Unknown                                 ANT # / TYPE
 -2854035.9317  4667264.8389  3268186.2469                  APPROX POSITION XYZ
        0.0000        0.0000        0.0000                  ANTENNA: DELTA H/E/N
G    3 C1C D1C S1C                                          SYS / # / OBS TYPES
R    3 C1C D1C S1C                                          SYS / # / OBS TYPES
J    3 C1C D1C S1C                                          SYS / # / OBS TYPES
C    3 C2I D2I S2I                                          SYS / # / OBS TYPES
E    3 C1C D1C S1C                                          SYS / # / OBS TYPES
  2024    12    14    08    02   32.0000000     GPS         TIME OF FIRST OBS
 7 R04  6 R14 -7 R15  0 R16 -1 R17  4 R18 -3 R24  2         GLONASS SLOT / FRQ #
Xiaomi 22101320I (Android 14) HW Year: 2018 HW Model:       COMMENT
qcom;MPSS.HI.4.3.c2-00125-LC_ALL_PACK-1.48771.36;           COMMENT
                                                            END OF HEADER
> 2024 12 14 08 02 32.4186065  0 34                      
G02  24176411.22724      3624.40024        28.20024
G04  22163554.89824     -2403.04124        28.80024
G08  20002013.80225       626.34425        32.90025
G16  21856085.35524     -1787.90024        27.30024
G26  23784551.00625     -2270.99525        35.30025
G27  20321482.53823     -1629.95023        22.80023
G31  24164461.79925     -3226.75925        34.20025
J02  39348368.79926        28.73626        39.90026
J03  37057468.15725       -36.81925        34.30025
J04  36930245.53125      -288.82025        35.30025
R14  20848428.34126      -974.96126        38.70026
R18  22124313.56425      4310.72125        33.60025
R16  23759714.10024      2807.85024        26.40024
R24  21130240.14724     -2554.15024        26.00024
R17  19600487.37325      1655.67325        35.40025
C60  38507006.36224       -11.10024        26.50024
C59  37324397.36525       -26.85025        30.90025
C43  24892952.37625      3222.64525        30.40025
C39  35883204.48224      -388.65024        28.20024
C34  21807500.68926      1520.31626        37.60026
C26  25676173.06327     -2260.33427        41.50027
C24  21988877.82526      -635.95726        38.50026
C16  35778479.48226        -9.55826        39.80026
C12  21997983.12127      -149.69527        42.00027
C11  23211217.71626      2750.64126        36.50026
C09  36297529.65123       474.25023        22.00023
C06  35543415.21425        -2.60525        32.10025
C01  37572656.39925        19.25025        31.10025
E02  24113939.57523      -538.50023        21.20023
E03  27599513.76225     -2901.56125        29.60025
E08  25274546.80325     -2060.95825        34.60025
E25  27249118.43625     -1574.45625        32.00025
E34  25956160.03225      2739.65225        31.00025
E36  25371153.42425       778.42325        35.20025
> 2024 12 14 08 02 33.4186065  0 34                      
G02  24175733.07825      3625.50325        32.70025
G04  22163999.77225     -2399.81325        30.30025
G08  20001888.17124       626.65024        28.00024
G16  21856421.10524     -1787.60024        28.00024
G26  23784978.19226     -2270.63526        36.10026
G31  24165032.28624     -3225.25024        25.50024
J02  39348369.38126        29.22426        41.10026
J03  37057485.82625       -36.53125        31.20025
J04  36930290.78225      -288.31325        33.90025
R14  20848591.41124      -974.10024        26.90024
R18  22123483.12125      4310.96425        32.80025
R16  23759193.64324      2811.50024        26.20024
R24  21130720.99623     -2548.45023        22.00023
R17  19600178.86925      1655.29425        31.30025
C60  38507015.33824       -12.30024        27.10024
C59  37324400.94525        -6.30025        34.40025
C43  24892331.78725      3223.41125        32.90025
C39  35883279.41324      -385.35024        26.40024
C34  21807205.07626      1520.81326        41.10026
C26  25676609.24327     -2260.06627        42.70027
C24  21988998.02327      -635.79727        42.20027
C16  35778479.16427        -9.22427        41.50027
C12  21998012.78327      -149.77727        44.40027
C11  23210687.36526      2750.71626        35.90026
C09  36297450.18824       478.45024        25.80024
C06  35543413.09725        -1.62425        34.90025
C03  36833103.46324         0.25024        25.70024
C01  37572654.58225        10.70025        33.50025
E02  24114045.98324      -536.70224        25.70024
E03  27600062.66425     -2901.12625        34.40025
E08  25274936.51625     -2060.69225        32.10025
E25  27249424.20625     -1574.18125        31.70025
E34  25955648.26924      2739.93924        28.10024
E36  25370990.91824       778.57124        28.90024
> 2024 12 14 08 02 34.4186065  0 34                      
G02  24175030.47325      3625.83525        34.80025
G04  22164466.05825     -2399.65425        33.80025
G08  20001784.85125       626.55025        29.90025
G16  21856772.86925     -1786.71725        29.70025
G26  23785410.60125     -2270.39625        34.40025
G27  20322098.40223     -1624.85023        22.40023
G31  24165647.56924     -3226.55024        28.00024
J02  39348358.99626        29.57426        40.00026
J03  37057508.41924       -35.50024        26.60024
J04  36930353.54725      -287.95225        33.10025
R14  20848987.84423      -974.50023        22.10023
R18  22122690.57824      4311.22724        29.30024
R16  23758684.40324      2809.15024        24.10024
R24  21131190.87924     -2550.95024        24.10024
R17  19599955.33224      1656.35024        25.20024
C60  38507017.24524        -8.30024        27.50024
C59  37324409.44726       -26.30026        35.60026
C44  22667760.93424     -1656.80024        26.30024
C43  24891709.82625      3223.64325        32.70025
C39  35883339.47924      -386.60024        28.50024
C34  21806915.88527      1520.69927        42.60027
C26  25677041.35227     -2259.93427        43.20027
C24  21989121.34627      -635.83627        42.80027
C16  35778481.07126        -8.95126        39.90026
C12  21998041.67127      -150.02627        44.70027
C11  23210156.84125      2750.73625        34.90025
C09  36297358.86024       478.30024        25.00024
C06  35543409.90825        -1.40625        33.30025
C01  37572652.59225         7.40025        33.70025
E03  27600611.69226     -2900.53326        36.10026
E08  25275327.85325     -2060.47925        29.80025
E25  27249728.60425     -1573.69925        31.10025
E34  25955135.13224      2740.47424        24.90024
E36  25370861.81625       778.43325        30.80025
> 2024 12 14 08 02 35.4186065  0 32                      
G02  24174344.26825      3621.07725        32.40025
G04  22164921.46225     -2405.01825        34.50025
G08  20001674.54725       620.97425        32.20025
G16  21857095.76625     -1791.65025        29.80025
G26  23785843.22125     -2275.28325        33.30025
G27  20322386.52324     -1629.65024        25.20024
G31  24166262.46324     -3230.70024        26.10024
J02  39348347.92426        24.92726        38.80026
J04  36930412.62524      -290.30024        27.70024
R14  20849130.26623      -978.85023        21.60023
R18  22121872.46425      4305.93125        30.30025
R24  21131633.69323     -2559.40023        22.90023
R17  19599631.27624      1648.30024        27.50024
C60  38507021.76224       -10.20024        27.90024
C59  37324410.36626       -15.70026        35.90026
C44  22668078.13424     -1663.75024        24.80024
C43  24891095.87125      3218.95225        30.60025
C34  21806623.60727      1515.32127        43.70027
C26  25677474.27326     -2264.88926        41.10026
C24  21989245.18027      -640.86727        42.60027
C16  35778487.08726       -13.91326        40.10026
C12  21998069.27227      -155.36527        45.30027
C11  23209634.62225      2745.46225        31.60025
C09  36297280.33424       471.50024        26.20024
C06  35543414.42425        -6.99325        31.40025
C04  38498002.80523        33.65023        22.60023
C01  37572654.41125       -14.95025        32.90025
E03  27601163.33025     -2905.29825        34.10025
E08  25275721.20025     -2065.65625        30.40025
E25  27250024.81825     -1578.57925        31.00025
E34  25954600.32225      2735.13125        30.00025
E36  25370714.63825       772.95025        31.10025
> 2024 12 14 08 02 36.4186065  0 36                      
G02  24173662.33025      3618.13625        34.80025
G04  22165380.53526     -2409.33426        39.30026
G08  20001538.83126       617.52326        37.30026
G16  21857456.50624     -1795.10124        29.30024
G26  23786275.61225     -2278.48125        30.20025
G27  20322709.78924     -1633.35024        26.80024
G31  24166901.71026     -3233.02726        37.70026
J02  39348354.90925        22.97925        35.20025
J03  37057496.23825       -43.80025        32.30025
J04  36930464.58025      -295.01825        33.10025
R14  20849172.62726      -981.97426        39.40026
R18  22121081.10325      4301.49825        33.00025
R16  23757624.44724      2801.85024        24.40024
R17  19599267.41826      1644.22126        37.30026
R04  24120178.45622     -3582.90022        17.20022
C59  37324401.76325       -38.90025        33.00025
C44  22668427.78224     -1669.55024        28.80024
C43  24890472.39326      3214.91826        35.70026
C39  35883495.18225      -395.20025        31.70025
C34  21806329.00126      1512.31626        38.30026
C26  25677907.56326     -2267.29126        36.30026
C24  21989373.88227      -642.88027        41.90027
C16  35778491.67427       -16.59927        41.50027
C12  21998097.84226      -159.10226        39.90026
C11  23209098.38425      2742.20025        35.30025
C09  36297179.09424       468.25024        23.50024
C06  35543415.11426        -9.11926        38.00026
C03  36833108.17825        -0.75025        33.20025
C02  37981335.47723       -60.70023        22.80023
C01  37572648.80526         0.30026        36.40026
E02  24114376.27323      -544.45023        20.80023
E03  27601709.94225     -2907.40025        35.10025
E08  25276118.81525     -2069.82225        33.70025
E25  27250326.20025     -1579.69525        29.90025
E34  25954076.97525      2731.41325        33.20025
E36  25370557.63725       771.35825        31.70025
> 2024 12 14 08 02 37.4186065  0 38                      
G02  24172967.37725      3615.43425        31.70025
G04  22165837.98326     -2411.12526        36.00026
G08  20001430.57125       615.57325        34.80025
G16  21857788.04225     -1796.93325        32.60025
G26  23786704.28125     -2278.51725        32.30025
G27  20323008.04824     -1634.85024        27.40024
G31  24167541.13326     -3237.15826        36.00026
J02  39348347.38026        21.83726        36.00026
J03  37057494.70426       -45.85326        36.00026
J04  36930520.60625      -297.36925        31.60025
R14  20849364.75926      -983.16226        38.60026
R18  22120287.21725      4300.12325        31.50025
R16  23757045.81324      2801.60024        25.30024
R24  21132631.45723     -2565.05023        23.30023
R17  19598972.98725      1643.03025        33.50025
R04  24120815.78023     -3593.45023        23.30023
C60  38507066.48624       -97.40024        26.40024
C59  37324415.21925       -25.00025        35.20025
C44  22668783.00224     -1669.55024        27.60024
C43  24889860.18226      3212.69326        39.20026
C39  35883565.29826      -396.38226        37.90026
C34  21806045.36326      1510.10026        36.70026
C26  25678357.81626     -2270.31826        37.90026
C24  21989495.56327      -644.33827        42.70027
C23  27091893.64623      2577.45023        20.80023
C16  35778498.53425       -18.04025        34.60025
C12  21998134.68226      -161.03326        37.30026
C11  23208570.11525      2740.19325        34.60025
C07  36606304.95623       114.25023        20.90023
C06  35543412.38125        -9.82225        33.10025
C04  38498004.06025        21.85025        30.10025
C03  36833113.54025        23.00025        33.20025
C01  37572655.06625         6.95025        32.80025
E03  27602260.62626     -2910.68526        36.40026
E08  25276516.30526     -2071.86726        38.00026
E25  27250615.46525     -1580.73825        34.10025
E34  25953551.70425      2731.81425        30.40025
E36  25370429.59126       768.41026        36.20026
> 2024 12 14 08 02 38.4186065  0 38                      
G02  24172279.90725      3617.42725        34.40025
G04  22166296.92025     -2409.57325        33.30025
G08  20001309.11026       616.34326        38.20026
G09  22300347.31922     -1148.20022        16.30022
G16  21858137.25424     -1796.05924        28.90024
G26  23787151.82525     -2278.92025        31.50025
G27  20323369.55223     -1634.80023        22.00023
G31  24168156.56126     -3235.97326        36.80026
J02  39348337.44126        21.96426        36.80026
J03  37057509.94824       -44.45324        29.00024
J04  36930576.02224      -293.55024        25.60024
R14  20849547.28725      -983.13325        34.90025
R18  22119463.34226      4301.20126        37.40026
R16  23756527.42624      2798.55024        26.80024
R24  21133121.87224     -2565.25024        27.20024
R17  19598636.27425      1643.19625        33.10025
R04  24121475.87824     -3588.30024        25.00024
C60  38507060.14524       -61.25024        26.40024
C59  37324422.06825       -17.45025        34.80025
C44  22669097.73825     -1668.97125        30.50025
C43  24889238.66726      3214.54726        39.70026
C39  35883647.69625      -395.56725        31.70025
C34  21805750.92126      1510.73426        41.20026
C33  26826305.66323     -2284.45023        21.50023
C26  25678806.26025     -2268.73425        33.60025
C24  21989620.83026      -644.54726        40.50026
C23  27091402.84023      2576.00023        22.60023
C16  35778496.69026       -17.85526        38.50026
C12  21998178.40625      -159.63125        33.30025
C11  23208048.43025      2740.49225        35.10025
C09  36297017.42623       471.60023        21.80023
C06  35543414.13426        -9.89326        35.90026
C01  37572669.41025         7.70025        34.60025
E03  27602816.09625     -2908.63325        30.50025
E08  25276907.48926     -2070.45526        38.90026
E25  27250917.61025     -1581.06725        29.70025
E34  25953028.22025      2731.60925        33.50025
E36  25370281.44825       767.41425        32.90025
> 2024 12 14 08 02 39.4186065  0 37                      
G02  24171590.92325      3620.08725        31.60025
G04  22166769.63225     -2407.68225        30.00025
G08  20001210.71725       617.80925        31.70025
G16  21858473.86124     -1791.40024        26.60024
G26  23787587.96325     -2276.83325        32.30025
G27  20323660.29024     -1633.95024        25.60024
G31  24168778.27025     -3233.25925        34.60025
J02  39348336.48126        24.05126        38.70026
J03  37057476.01124       -44.00024        28.50024
J04  36930630.22424      -290.15024        25.50024
R14  20849716.90925      -982.42825        34.90025
R18  22118677.52625      4303.91825        32.70025
R24  21133583.19223     -2559.30023        21.60023
R17  19598338.22025      1644.65625        35.00025
R04  24122229.79524     -3586.25024        24.10024
C60  38507053.48924       -31.10024        25.60024
C44  22669410.36125     -1666.90925        33.60025
C43  24888637.52225      3216.56425        34.90025
C39  35883713.29025      -393.87225        35.40025
C34  21805460.36126      1512.47226        38.90026
C33  26826718.41723     -2276.20023        23.40023
C26  25679254.09025     -2266.70625        31.50025
C24  21989735.89026      -643.10526        36.00026
C23  27090899.12824      2575.85024        24.50024
C16  35778499.32826       -15.67826        40.40026
C12  21998209.82425      -161.37425        29.70025
C11  23207515.33925      2743.50225        32.80025
C09  36296917.23424       469.15024        26.10024
C06  35543415.57325        -8.00625        32.90025
C03  36833107.13825        -8.15025        34.60025
C02  37981344.92924       -36.15024        25.40024
C01  37572649.86325         4.10025        35.40025
E03  27603365.55525     -2905.78025        31.20025
E08  25277300.45626     -2068.08126        39.10026
E25  27251215.54324     -1579.15624        26.20024
E34  25952506.22124      2733.55724        26.20024
E36  25370132.09025       770.02225        33.50025
> 2024 12 14 08 02 40.4186065  0 39                      
G02  24170901.04325      3612.08825        33.50025
G04  22167215.96625     -2416.42025        34.40025
G08  20001074.25426       609.58426        36.10026
G16  21858802.37624     -1800.07424        28.70024
G26  23788010.01325     -2284.46525        32.80025
G27  20323981.31024     -1637.35024        24.80024
G31  24169384.69326     -3242.10426        36.30026
J02  39348328.32926        17.54726        37.50026
J03  37057514.32625       -49.53725        34.20025
J04  36930686.82725      -301.19925        30.80025
R14  20849921.31026      -988.88826        40.80026
R18  22117863.83125      4295.80025        34.90025
R16  23755517.90723      2796.25023        23.00023
R24  21134097.57823     -2560.45023        22.60023
R17  19598028.77726      1636.27326        36.00026
C60  38507053.13224       -24.40024        24.40024
C59  37324443.83525       -28.55025        33.00025
C44  22669735.27924     -1674.15024        28.70024
C43  24888008.50026      3208.77226        37.00026
C39  35883797.77426      -401.22626        36.90026
C34  21805169.50525      1504.77025        35.20025
C33  26827180.33924     -2291.30024        23.60024
C26  25679663.54926     -2274.75626        36.90026
C24  21989867.74126      -649.66126        37.80026
C16  35778509.76326       -22.82326        40.30026
C12  21998228.05326      -166.52226        36.60026
C11  23206993.34325      2735.20525        33.80025
C09  36296821.54324       462.55024        26.20024
C07  36606265.22023       119.55023        20.90023
C06  35543424.50926       -15.18526        37.60026
C04  38498000.59925        -3.10025        30.70025
C03  36833101.98426       -20.02026        37.00026
C01  37572661.19825         5.55025        33.00025
E02  24114766.10523      -543.15023        19.20023
E03  27603922.51225     -2913.88825        31.60025
E08  25277698.52326     -2076.68026        40.80026
E25  27251513.77924     -1585.59924        27.20024
E34  25951998.61525      2728.13625        30.40025
E36  25369976.74025       763.62825        35.40025
> 2024 12 14 08 02 41.4186065  0 40                      
G02  24170228.26525      3615.06925        29.90025
G04  22167683.89825     -2413.05625        34.50025
G08  20000943.50125       612.27925        29.50025
G09  22301003.10323     -1154.55023        18.30023
G16  21859167.77924     -1797.15024        27.70024
G26  23788451.26424     -2280.95024        27.50024
G27  20324254.67723     -1634.90023        22.30023
G31  24169997.72525     -3237.80925        35.10025
J02  39348327.68624        18.30024        24.30024
J03  37057527.17424       -47.75624        28.80024
J04  36930750.63925      -298.44325        33.90025
R14  20850109.53626      -987.99626        39.60026
R18  22117072.33525      4297.88325        33.70025
R16  23755010.01524      2797.10024        24.50024
R24  21134525.63824     -2566.50024        23.90024
R17  19597737.63525      1638.09025        35.30025
R04  24123457.94423     -3592.80023        23.30023
C60  38507051.58924       -12.70024        24.30024
C59  37324444.39125       -26.80025        35.30025
C44  22670031.13024     -1674.55024        29.00024
C43  24887386.08726      3212.31826        38.70026
C39  35883877.47526      -398.13926        37.70026
C34  21804884.05926      1506.25126        40.60026
C33  26827604.50224     -2294.60024        25.50024
C26  25680091.30925     -2270.57225        34.30025
C25  22581586.95923      1775.75023        21.10023
C24  21989998.70726      -647.71426        36.00026
C16  35778515.71525       -21.08725        34.10025
C12  21998263.68525      -165.21425        30.20025
C11  23206460.86725      2737.47925        32.10025
C09  36296743.85324       463.95024        26.40024
C06  35543423.86625       -12.50125        33.00025
C04  38497983.16725       -16.55025        33.00025
C03  36833100.74126        -4.28126        36.50026
C01  37572659.05525       -17.70025        31.70025
E03  27604482.48024     -2910.35024        26.00024
E08  25278092.40726     -2073.23626        38.10026
E25  27251821.62225     -1583.12225        30.00025
E34  25951490.42324      2727.13624        29.20024
E36  25369833.39625       764.22225        32.80025
> 2024 12 14 08 02 42.4186065  0 37                      
G02  24169553.18024      3615.20024        24.50024
G04  22168135.73326     -2414.95726        36.50026
G08  20000826.33024       608.45024        25.90024
G09  22301216.60323     -1156.05023        21.80023
G16  21859479.31123     -1795.70023        22.50023
G27  20324551.22024     -1641.45024        25.20024
G31  24170596.45826     -3240.00026        39.20026
J02  39348334.62824        19.33124        29.00024
J03  37057500.54023       -42.80023        21.70023
J04  36930805.84926      -300.03926        36.60026
R14  20850299.05226      -989.58026        39.90026
R18  22116249.15326      4296.97426        37.50026
R15  20482655.16721      1543.45021        11.50021
R24  21134947.79424     -2572.45024        25.10024
R17  19597415.70525      1634.35725        29.70025
R04  24124152.01123     -3589.25023        23.10023
C60  38507051.63724       -70.20024        28.40024
C44  22670366.64525     -1674.44325        33.10025
C43  24886775.45826      3210.17426        36.90026
C39  35883954.26926      -400.47426        41.40026
C34  21804594.20727      1504.78427        42.00027
C33  26828029.65524     -2288.90024        26.60024
C26  25680551.23825     -2275.13825        35.20025
C25  22581279.71924      1774.60024        24.00024
C24  21990100.98424      -647.45024        25.40024
C16  35778525.65625       -22.24625        32.00025
C12  21998291.61324      -165.25024        28.50024
C11  23205944.37326      2735.93926        37.30026
C09  36296638.07424       468.50024        24.00024
C06  35543412.82124       -13.55024        26.70024
C01  37572648.91025         3.05025        32.20025
E02  24115017.03523      -549.50023        22.10023
E03  27605028.45025     -2912.11525        31.20025
E08  25278489.97926     -2075.34126        38.80026
E25  27252126.25926     -1585.68326        35.90026
E34  25950958.93924      2726.69924        29.20024
E36  25369651.46924       760.25024        26.30024
> 2024 12 14 08 02 43.4186065  0 33                      
G02  24168863.41825      3614.55525        31.50025
G04  22168593.57625     -2414.30825        33.20025
G08  20000721.46326       610.13526        35.50026
G26  23789304.28224     -2283.05024        23.70024
G27  20324909.23224     -1636.15024        23.80024
G31  24171216.78925     -3238.13825        32.40025
J02  39348327.19425        19.30725        34.80025
J03  37057548.86725       -47.60725        29.90025
J04  36930870.96425      -298.81025        32.90025
R14  20850456.80326      -988.98926        36.80026
R18  22115442.17226      4297.64026        36.70026
R17  19597105.18125      1635.19525        32.10025
C60  38507041.50424       -55.60024        27.80024
C59  37324458.88925       -27.05025        30.00025
C44  22670696.77824     -1674.95024        23.80024
C43  24886153.74926      3210.94626        37.50026
C41  26597522.29323     -1562.05023        19.70023
C39  35884031.67625      -399.84925        32.40025
C34  21804304.36827      1505.24827        41.80027
C33  26828482.40224     -2287.85024        25.80024
C26  25680962.61425     -2272.27425        32.30025
C24  21990240.44824      -648.55024        28.70024
C16  35778517.62225       -21.47525        30.90025
C12  21998342.03924      -168.85024        25.40024
C11  23205424.29325      2736.56625        35.10025
C09  36296561.38823       463.05023        23.40023
C06  35543430.86925       -13.67125        29.50025
C01  37572654.36726         2.55026        35.70026
E03  27605592.12124     -2911.22924        26.70024
E08  25278880.96926     -2074.50426        37.30026
E25  27252436.60526     -1584.91526        36.10026
E34  25950446.05425      2728.06725        34.90025
E36  25369578.38124       764.75024        28.50024
> 2024 12 14 08 02 44.4186065  0 37                      
G02  24168187.44225      3615.63125        29.60025
G04  22169052.31525     -2413.42125        33.50025
G08  20000598.30425       610.67425        31.50025
G16  21860206.12423     -1795.75023        22.90023
G26  23789754.92524     -2281.75024        26.90024
G27  20325239.06024     -1637.35024        24.10024
G31  24171840.71325     -3238.57025        34.50025
J02  39348313.75925        20.36625        33.00025
J03  37057568.70925       -47.06925        29.50025
J04  36930920.18625      -298.12125        33.60025
R14  20850662.51726      -988.17526        40.70026
R18  22114634.88726      4298.15226        35.90026
R24  21136000.78123     -2562.40023        22.70023
R17  19596832.42525      1635.99425        35.20025
R04  24125535.07023     -3592.35023        20.20023
C60  38507047.85624       -54.80024        26.80024
C59  37324456.24725       -37.45025        34.00025
C44  22670997.22523     -1676.25023        22.60023
C43  24885538.33026      3212.18726        37.70026
C39  35884101.88324      -399.95024        27.10024
C34  21804013.92526      1505.80626        40.60026
C33  26828915.95823     -2286.85023        23.30023
C26  25681403.06526     -2271.72026        37.70026
C24  21990367.91525      -648.68825        32.40025
C16  35778519.47624       -21.85024        28.40024
C12  21998389.16224      -166.05024        27.40024
C11  23204892.21725      2737.65325        30.90025
C09  36296462.81223       464.05023        22.30023
C06  35543425.82825       -13.25225        31.60025
C04  38497979.13424        26.85024        28.10024
C03  36833115.89524        10.95024        28.30024
C01  37572652.92425         3.95025        35.20025
E03  27606146.19325     -2910.00125        30.30025
E08  25279275.85226     -2073.57826        37.10026
E25  27252730.15825     -1583.66725        35.10025
E34  25949926.57025      2728.99225        34.30025
E36  25369429.14025       763.63725        30.00025
> 2024 12 14 08 02 45.4186065  0 39                      
G02  24167466.84925      3614.08825        29.50025
G04  22169509.60626     -2416.32426        35.80026
G08  20000486.88925       608.18825        34.30025
G16  21860500.02924     -1799.15024        25.90024
G26  23790180.43924     -2278.35024        26.90024
G27  20325529.66724     -1641.70024        27.30024
G31  24172454.49626     -3239.78026        38.10026
J02  39348312.66825        19.65825        34.70025
J03  37057566.41925       -47.97225        33.00025
J04  36930979.65324      -301.45024        28.10024
R14  20850858.68926      -989.77926        37.80026
R18  22113841.14425      4295.35625        29.90025
R16  23752876.96423      2795.55023        21.10023
R17  19596497.66525      1634.76425        31.60025
R04  24126166.54124     -3591.35024        26.90024
C60  38507051.86124       -43.05024        26.60024
C59  37324457.85425       -35.20025        31.90025
C44  22671327.10525     -1673.63025        29.90025
C43  24884921.16626      3209.93026        35.80026
C41  26598121.14223     -1564.05023        19.80023
C39  35884179.93726      -400.25526        36.70026
C34  21803724.43426      1503.73626        40.00026
C33  26829366.05424     -2287.45024        29.00024
C26  25681841.46926     -2272.71926        40.20026
C25  22580222.87523      1768.65023        20.20023
C24  21990490.03926      -649.14326        37.20026
C16  35778532.17625       -22.21925        34.90025
C12  21998388.67125      -167.32825        34.20025
C11  23204366.48926      2734.88526        37.60026
C09  36296397.86523       466.10023        23.10023
C07  36606110.45523       110.65023        20.60023
C06  35543435.82925       -14.74325        33.70025
C04  38497978.94225        15.30025        33.70025
C01  37572651.83225        12.55025        32.30025
E03  27606702.11624     -2912.13124        23.60024
E08  25279668.38826     -2076.49626        36.00026
E25  27253025.56126     -1583.51426        35.90026
E34  25949413.73324      2728.76524        29.00024
E36  25369259.56525       760.57625        32.90025
> 2024 12 14 08 02 46.4186065  0 38                      
G02  24166780.60325      3616.32625        29.90025
G04  22169967.36826     -2414.98126        37.40026
G08  20000374.14625       611.07825        33.40025
G16  21860867.55424     -1796.95024        26.10024
G26  23790610.32125     -2275.28525        30.30025
G27  20325820.74524     -1637.05024        27.00024
G31  24173075.94526     -3235.85726        37.80026
J02  39348307.25125        24.04125        34.70025
J03  37057577.19125       -45.84225        32.80025
J04  36931035.09425      -298.39025        29.70025
R14  20851026.55225      -984.78225        34.90025
R18  22113024.48925      4297.08725        35.40025
R16  23752322.02724      2800.10024        25.00024
R17  19596199.65125      1636.95225        32.20025
R04  24126850.04723     -3591.10023        22.90023
C60  38507054.83824       -26.15024        26.60024
C59  37324460.53125         0.15025        31.90025
C44  22671652.35924     -1673.10024        29.10024
C43  24884306.87026      3210.85826        37.20026
C39  35884256.96325      -397.06225        35.30025
C34  21803437.21226      1504.51326        37.20026
C33  26829810.92624     -2288.90024        26.50024
C26  25682275.54826     -2268.19026        37.20026
C24  21990620.12826      -644.71126        36.60026
C16  35778532.15526       -18.78126        35.50026
C12  21998417.43026      -164.64226        37.20026
C11  23203845.42925      2736.92225        32.50025
C09  36296292.91723       466.00023        22.20023
C07  36606116.73024       112.45024        24.20024
C06  35543437.60826       -12.33526        36.20026
C03  36833110.28625         3.00025        30.90025
C02  37981442.51223       -71.65023        21.50023
E02  24115406.06923      -547.45023        20.30023
E03  27607245.61925     -2910.70025        35.10025
E08  25280066.79126     -2075.94426        36.00026
E25  27253322.03524     -1576.84024        29.10024
E34  25948882.78025      2728.43825        33.80025
E36  25369109.34825       768.28425        34.00025
> 2024 12 14 08 02 47.4186065  0 34                      
G02  24166091.55225      3615.87525        30.40025
G04  22170434.01725     -2416.99725        33.20025
G08  20000257.39925       608.65925        33.60025
G16  21861202.89324     -1795.90024        27.90024
G26  23791061.08024     -2280.70024        28.50024
G27  20326140.79524     -1639.60024        26.30024
G31  24173691.29125     -3237.29125        34.10025
J02  39348306.52426        23.70826        35.80026
J03  37057582.75925       -46.63525        34.40025
J04  36931091.02725      -298.65625        30.50025
R14  20851218.59125      -985.85025        29.80025
R18  22112220.01825      4296.87825        32.80025
R16  23751802.65823      2803.15023        21.90023
R24  21137375.58923     -2573.55023        18.60023
R17  19595904.52725      1634.32825        31.30025
C60  38507051.71224       -13.95024        26.70024
C44  22671969.11224     -1673.79724        29.30024
C43  24883690.96925      3210.61125        32.80025
C39  35884332.08325      -398.08325        32.80025
C34  21803147.78425      1505.19425        33.30025
C33  26830249.09424     -2283.90024        26.00024
C26  25682705.62226     -2267.42726        35.70026
C24  21990742.91525      -647.14425        35.30025
C16  35778535.62425       -20.29925        34.00025
C12  21998452.37825      -165.90025        35.00025
C11  23203320.36526      2735.56026        35.90026
C09  36296216.64123       460.25023        22.80023
C06  35543439.57825       -12.00925        34.00025
C01  37572648.38625         2.80025        34.20025
E03  27607796.80925     -2909.89025        30.20025
E08  25280462.38926     -2077.06126        35.60026
E25  27253637.28925     -1577.87825        29.50025
E34  25948361.61225      2728.98925        31.90025
E36  25368953.32825       766.33825        33.10025
> 2024 12 14 08 02 48.4186065  0 36                      
G02  24165415.24324      3613.55024        28.40024
G04  22170896.62025     -2419.47225        31.70025
G08  20000140.80325       607.28825        33.20025
G16  21861537.18524     -1798.10024        26.50024
G26  23791472.41825     -2276.63825        30.20025
G27  20326410.63124     -1642.15024        24.60024
G31  24174314.88225     -3238.30025        30.10025
J02  39348298.75225        21.24325        33.10025
J03  37057582.78125       -46.27525        34.10025
J04  36931133.32124      -304.90024        28.50024
R14  20851399.38925      -988.40025        31.90025
R18  22111403.10625      4296.25125        32.10025
R17  19595608.05525      1633.19325        31.30025
R04  24128203.50423     -3586.55023        19.60023
C59  37324477.81425       -26.35025        33.90025
C44  22672282.11824     -1674.45024        28.70024
C43  24883068.62225      3208.23725        34.20025
C39  35884412.45025      -399.67325        33.30025
C34  21802858.50726      1503.25026        37.50026
C33  26830689.51224     -2291.65024        23.90024
C26  25683138.24526     -2269.69926        36.40026
C24  21990862.55526      -646.91326        40.10026
C16  35778540.14425       -19.97225        30.70025
C12  21998473.08626      -166.34826        36.60026
C11  23202789.15525      2733.68825        33.60025
C09  36296106.34123       467.10023        23.20023
C07  36606061.76323       111.20023        20.20023
C06  35543443.79825       -14.43125        33.40025
C04  38497961.72825        28.50025        30.80025
C01  37572640.31425       -16.45025        32.50025
E02  24115591.53523      -540.70023        21.00023
E03  27608342.15524     -2912.12324        26.90024
E08  25280853.04226     -2079.14126        35.60026
E25  27253929.01025     -1579.06125        31.50025
E34  25947838.49725      2728.23225        34.60025
E36  25368812.74825       763.98525        34.10025
> 2024 12 14 08 02 49.4186065  0 35                      
G02  24164717.82824      3612.88124        28.60024
G04  22171348.00926     -2417.30426        35.80026
G08  20000027.98225       607.16525        35.30025
G16  21861859.96324     -1794.10024        23.80024
G26  23791904.32125     -2275.66425        31.90025
G27  20326726.51423     -1645.55023        21.90023
G31  24174923.96225     -3238.47725        32.50025
J02  39348289.06026        23.23826        36.60026
J03  37057598.87225       -45.06225        31.30025
J04  36931219.26324      -299.25024        28.20024
R14  20851591.15826      -986.41926        36.70026
R18  22110627.44524      4298.00024        28.70024
R17  19595283.28125      1633.47325        31.70025
C59  37324478.31525       -37.75025        33.40025
C44  22672602.19824     -1674.40024        28.60024
C43  24882460.54525      3210.54125        32.00025
C39  35884484.60226      -397.09626        36.50026
C34  21802570.30825      1505.12625        32.40025
C33  26831135.80524     -2282.60024        23.60024
C26  25683576.74425     -2268.22225        34.00025
C24  21990989.26926      -646.83026        40.30026
C16  35778544.24326       -20.33926        35.90026
C12  21998511.36125      -168.11625        31.40025
C11  23202268.61725      2735.80525        33.20025
C09  36296020.80123       463.30023        22.30023
C07  36606028.98723       112.25023        23.00023
C06  35543448.79625       -12.85125        32.00025
C03  36833118.47625         3.10025        30.50025
C02  37981444.70724       -12.40024        24.50024
C01  37572650.10925       -25.65025        33.70025
E03  27608914.66024     -2909.45024        23.80024
E08  25281252.86725     -2077.33225        34.00025
E25  27254232.30125     -1577.53325        32.30025
E34  25947325.45425      2729.68125        31.90025
E36  25368658.85725       765.29325        33.00025
> 2024 12 14 08 02 50.4186065  0 33                      
G02  24164028.66424      3617.31624        28.90024
G04  22171811.24825     -2417.49325        35.00025
G08  19999913.82126       607.72526        36.10026
G16  21862223.37124     -1791.85024        26.00024
G26  23792334.58324     -2276.15824        29.10024
G27  20327064.73924     -1640.20024        23.80024
G31  24175553.58625     -3240.17925        31.10025
J02  39348284.62225        24.03225        35.40025
J03  37057612.42225       -46.65225        31.60025
J04  36931264.59125      -300.01125        29.90025
R14  20851769.59326      -983.46126        38.30026
R18  22109806.97224      4295.35024        28.40024
R24  21138815.77523     -2574.90023        18.10023
R17  19594985.34725      1632.87525        32.70025
R04  24129553.73123     -3591.40023        19.60023
C59  37324487.36825       -36.65025        35.40025
C44  22672920.63724     -1673.66424        29.30024
C43  24881841.83225      3211.88725        30.70025
C39  35884562.90726      -396.41626        37.30026
C34  21802284.96525      1505.61725        35.40025
C33  26831581.95523     -2284.65023        23.20023
C26  25684027.09125     -2266.30225        31.70025
C24  21991111.34426      -647.12726        40.10026
C16  35778548.49925       -20.27025        32.50025
C12  21998537.80226      -165.42226        38.70026
C11  23201738.34425      2739.43225        32.90025
C06  35543444.65825       -12.12525        34.20025
C01  37572649.26925       -14.20025        32.70025
E03  27609476.23024     -2907.58824        25.00024
E08  25281645.05425     -2077.45025        33.80025
E25  27254533.65225     -1577.71625        30.60025
E34  25946797.57925      2729.66225        31.30025
E36  25368516.51525       766.56025        32.90025
> 2024 12 14 08 02 51.4186065  0 34                      
G02  24163352.01124      3617.20024        28.40024
G04  22172270.20826     -2418.51626        36.80026
G08  19999800.77725       608.02225        35.40025
G16  21862576.50423     -1796.60023        22.90023
G26  23792765.96225     -2274.17325        34.60025
G27  20327374.40324     -1637.25024        25.70024
G31  24176174.43425     -3241.09525        32.50025
J02  39348287.89826        24.36426        37.80026
J03  37057614.79825       -45.16825        31.60025
J04  36931320.33025      -301.25225        29.60025
R14  20851945.55026      -984.62026        36.20026
R18  22108992.11424      4294.40024        28.70024
R17  19594660.05025      1631.75325        30.20025
C60  38507071.46024         7.95024        27.20024
C44  22673237.49624     -1673.20024        29.00024
C43  24881226.93625      3208.98925        30.00025
C39  35884636.93425      -395.31725        33.30025
C34  21801990.84725      1502.68525        34.10025
C33  26832006.44024     -2281.20024        25.20024
C26  25684469.86325     -2272.11525        31.30025
C24  21991237.53426      -645.74326        38.70026
C16  35778552.97425       -19.10425        33.50025
C12  21998570.75826      -165.45526        38.50026
C11  23201208.28925      2736.15025        31.30025
C09  36295857.15223       464.50023        20.50023
C07  36605984.05623       110.10023        21.30023
C06  35543447.93425       -12.76025        34.60025
C04  38497963.16624         6.35024        27.60024
C01  37572648.34825         9.80025        31.70025
E02  24115909.55423      -544.75023        19.60023
E08  25282040.45925     -2078.07225        34.60025
E25  27254825.02825     -1575.30625        34.10025
E34  25946280.41524      2728.89324        28.70024
E36  25368368.09525       766.84925        32.70025
> 2024 12 14 08 02 52.4186065  0 34                      
G02  24162650.43924      3616.00024        28.20024
G04  22172729.43225     -2418.46125        35.10025
G08  19999680.50326       606.63526        36.00026
G16  21862892.12823     -1795.60023        22.90023
G26  23793200.90325     -2273.94125        33.10025
G27  20327675.03724     -1639.70024        23.90024
G31  24176776.06025     -3242.18125        31.50025
J02  39348279.74626        26.01326        36.60026
J03  37057616.54025       -43.58025        30.70025
J04  36931390.12424      -298.55024        25.60024
R14  20852137.95925      -985.19825        33.60025
R18  22108239.57825      4295.84225        29.80025
R17  19594368.59425      1631.21125        30.20025
C60  38507081.29624        -5.75024        27.80024
C44  22673560.91425     -1673.38225        29.70025
C43  24880614.70224      3212.40024        25.60024
C39  35884716.32126      -398.50826        36.40026
C34  21801705.38725      1503.68225        33.90025
C26  25684898.20925     -2272.59125        31.30025
C24  21991359.79226      -646.20226        40.80026
C16  35778554.71625       -19.66225        33.40025
C12  21998603.97726      -165.37526        39.30026
C11  23200689.59024      2739.75024        27.70024
C09  36295752.46724       464.75024        25.20024
C07  36605975.60424       118.05024        24.80024
C06  35543454.77225       -10.16325        32.50025
C03  36833122.65324       -29.40024        27.00024
C02  37981472.26724       -47.40024        27.50024
E02  24116006.92923      -545.75023        22.90023
E03  27610580.28724     -2909.75024        23.70024
E08  25282440.32425     -2077.50525        31.80025
E25  27255125.96325     -1575.58525        33.80025
E34  25945765.91425      2728.93225        31.90025
E36  25368227.73525       767.04225        30.70025
> 2024 12 14 08 02 53.4186065  0 33                      
G02  24161961.68723      3616.00023        23.30023
G04  22173184.68925     -2419.91125        32.00025
G08  19999565.55426       605.74326        36.30026
G16  21863217.57524     -1791.90024        24.20024
G26  23793623.78325     -2274.83625        34.40025
G27  20328001.68324     -1640.90024        24.20024
G31  24177393.80425     -3239.52825        30.40025
J02  39348274.22226        24.35426        36.90026
J03  37057612.81424       -42.95024        26.80024
J04  36931430.16824      -298.90024        28.10024
R14  20852310.81126      -985.43826        37.00026
R18  22107400.33125      4295.60625        30.60025
R17  19594070.77325      1628.98625        32.90025
C60  38507089.26224       -16.90024        27.40024
C59  37324509.64525       -17.85025        30.20025
C44  22673882.46324     -1673.50024        29.00024
C43  24879994.60424      3207.00024        27.50024
C39  35884794.43926      -398.51926        35.80026
C34  21801412.36225      1501.75025        31.10025
C33  26832897.23723     -2284.85023        20.70023
C26  25685331.58025     -2270.98325        33.30025
C24  21991485.27726      -645.68226        40.80026
C16  35778558.48526       -20.46326        36.90026
C12  21998631.43026      -166.16926        39.90026
C11  23200169.62224      2735.00024        29.20024
C07  36605958.08823       115.65023        23.40023
C06  35543459.74025       -12.07125        34.10025
C02  37981494.92425       -55.75025        31.80025
E03  27611129.07924     -2909.60124        25.70024
E08  25282832.32525     -2079.06625        33.90025
E25  27255431.02325     -1576.19025        31.30025
E34  25945248.04425      2725.38725        29.80025
E36  25368083.10725       765.48025        30.60025
> 2024 12 14 08 02 54.4186065  0 35                      
G02  24161329.95623      3612.30023        22.30023
G04  22173659.49225     -2419.80025        29.50025
G08  19999447.06825       603.57225        34.80025
G09  22303887.83722     -1166.40022        12.70022
G16  21863572.16123     -1790.55023        22.60023
G26  23794048.52024     -2277.96824        29.00024
G27  20328303.20523     -1648.30023        21.50023
G31  24177985.82624     -3240.90024        27.60024
J02  39348270.55625        23.55425        35.20025
J03  37057652.31824       -50.40024        25.10024
J04  36931484.06224      -301.95424        28.70024
R14  20852522.99625      -989.07925        32.40025
R18  22106593.52125      4294.16125        29.90025
R15  20479123.69421      1534.85021        11.90021
R24  21140767.14823     -2577.15023        18.10023
R17  19593764.61625      1626.56825        30.30025
R04  24132240.49423     -3593.35023        18.90023
C44  22674212.76624     -1675.90024        24.40024
C43  24879368.86824      3212.15024        27.80024
C39  35884874.11525      -398.74225        30.90025
C34  21801124.49226      1500.30426        35.60026
C26  25685756.91725     -2269.68525        32.30025
C24  21991608.42326      -647.33526        38.30026
C16  35778560.51526       -21.63126        35.80026
C12  21998666.13725      -169.61425        34.70025
C11  23199648.81424      2732.95024        26.90024
C07  36605913.05123       107.20023        22.60023
C06  35543459.07225       -14.05625        33.90025
C04  38497947.92224        43.65024        26.00024
C01  37572645.69524        19.60024        26.60024
E02  24116227.68023      -543.20023        20.40023
E08  25283226.78325     -2080.33025        30.90025
E25  27255725.35125     -1579.05425        29.80025
E34  25944729.03525      2723.38325        31.60025
E36  25367932.84225       763.02225        31.10025
> 2024 12 14 08 02 55.4186065  0 32                      
G04  22174114.61425     -2419.81925        29.90025
G08  19999330.78625       603.76725        34.10025
G16  21863929.85124     -1792.60024        24.40024
G26  23794525.52724     -2282.95024        26.40024
G27  20328612.32923     -1637.65023        23.40023
G31  24178621.12425     -3240.45025        29.60025
J02  39348272.69225        23.64625        34.70025
J03  37057643.36224       -45.75024        27.70024
J04  36931545.85724      -297.85024        24.50024
R14  20852686.42025      -990.57025        31.80025
R18  22105803.60524      4290.95024        27.90024
R17  19593465.76125      1626.93725        31.30025
C59  37324524.00425       -54.25025        29.90025
C44  22674532.38224     -1678.60024        26.00024
C43  24878766.92324      3211.05024        25.90024
C39  35884946.70325      -400.08225        31.70025
C34  21800840.02725      1499.46125        33.30025
C33  26833763.00723     -2281.30023        20.60023
C26  25686206.34425     -2274.28525        31.20025
C24  21991734.67326      -647.67426        39.70026
C16  35778566.84825       -21.80325        34.50025
C12  21998698.55225      -170.61825        34.20025
C11  23199108.32624      2729.80024        28.00024
C09  36295487.59123       460.50023        20.40023
C07  36605899.89723       117.95023        23.30023
C06  35543458.81025       -13.88225        31.80025
C03  36833106.90524        -4.05024        26.40024
E03  27612234.38323     -2909.50023        21.00023
E08  25283621.34824     -2080.68224        29.40024
E25  27256025.78125     -1578.36525        31.80025
E34  25944194.54225      2727.19025        35.30025
E36  25367804.26925       760.41225        29.90025
> 2024 12 14 08 02 56.4186065  0 30                      
G02  24159896.45523      3617.55023        20.80023
G04  22174581.75925     -2419.10225        29.80025
G08  19999221.13025       604.34125        32.60025
G16  21864253.69523     -1795.30023        23.30023
G26  23794936.91124     -2278.35024        28.50024
G31  24179248.05824     -3239.90024        27.50024
J02  39348258.67026        24.35126        36.00026
J03  37057676.40724       -47.25024        27.30024
J04  36931619.67524      -299.10024        24.50024
R14  20852872.36025      -987.36425        32.90025
R18  22105033.80724      4298.30024        25.60024
R17  19593162.43924      1630.09624        29.00024
C60  38507093.19724       -27.25024        25.20024
C44  22674842.13624     -1678.60024        25.70024
C43  24878152.11723      3208.35023        22.30023
C39  35885018.72125      -399.12625        29.60025
C34  21800549.89625      1500.75025        33.90025
C26  25686648.60625     -2273.66825        33.30025
C24  21991857.95726      -646.98326        39.90026
C16  35778567.81626       -19.87326        36.00026
C12  21998730.39925      -169.36525        35.10025
C11  23198596.04924      2735.85024        25.80024
C07  36605877.48124       113.15024        27.50024
C06  35543464.57425       -12.49325        34.50025
C02  37981514.44824       -58.75024        28.10024
E03  27612795.06323     -2909.60023        22.60023
E08  25284023.43824     -2079.46924        28.30024
E25  27256326.54124     -1579.65724        29.40024
E34  25943673.87125      2730.47925        31.40025
E36  25367646.34725       763.89425        29.60025
> 2024 12 14 08 02 57.4186065  0 30                      
G02  24159206.37323      3615.40023        22.00023
G04  22175035.38624     -2423.90024        26.90024
G08  19999108.14925       601.74125        32.10025
G16  21864619.48323     -1797.30023        22.60023
G26  23795377.04724     -2280.85024        25.00024
G27  20329263.88723     -1652.70023        20.30023
G31  24179851.58124     -3239.80024        27.20024
J02  39348256.61325        23.55725        34.40025
J03  37057692.93724       -51.45024        28.20024
J04  36931668.58224      -297.10024        25.00024
R14  20853045.38125      -989.68625        33.60025
R18  22104188.73224      4291.20024        25.10024
R17  19592861.78825      1624.92325        30.40025
C60  38507097.73524       -25.50024        24.60024
C44  22675168.65124     -1677.55024        27.80024
C43  24877528.58924      3211.60024        26.40024
C39  35885095.50924      -398.50024        28.60024
C34  21800257.63926      1498.03726        36.20026
C26  25687093.83925     -2276.29125        31.80025
C24  21991985.10926      -648.59726        35.90026
C16  35778578.34926       -22.69526        36.70026
C12  21998767.31425      -171.23425        33.30025
C11  23198067.85624      2732.95024        27.40024
C07  36605856.53724       110.30024        28.40024
C06  35543465.51525       -14.74225        33.00025
C04  38497958.56224        -2.65024        25.80024
C01  37572638.34824        75.15024        24.80024
E08  25284416.50625     -2081.48025        30.90025
E34  25943171.16024      2728.70024        26.10024
E36  25367528.26924       755.70024        25.60024
> 2024 12 14 08 02 58.4186065  0 31                      
G02  24158521.84824      3612.80024        23.70024
G04  22175520.95124     -2419.10024        23.50024
G08  19998990.23225       602.30325        32.80025
G16  21864937.16323     -1800.65023        22.90023
G26  23795808.34924     -2277.60024        24.50024
G31  24180475.94924     -3241.20024        27.40024
J02  39348250.51726        23.83426        36.00026
J03  37057664.35724       -49.00024        26.30024
J04  36931726.34224      -305.20024        26.60024
R14  20853258.43425      -989.08825        35.10025
R18  22103386.38924      4290.80024        26.20024
R17  19592518.72624      1626.55024        25.20024
C60  38507096.73624       -19.50024        25.10024
C59  37324534.20724       -18.45024        29.20024
C44  22675489.33024     -1677.45024        27.60024
C43  24876919.31224      3210.00024        27.00024
C39  35885175.75424      -400.05024        28.80024
C34  21799973.33726      1498.17826        36.10026
C26  25687536.53324     -2278.10024        28.40024
C24  21992103.72826      -649.37326        35.90026
C16  35778581.84826       -21.07226        36.00026
C12  21998795.09625      -170.53525        34.20025
C11  23197541.92024      2734.35024        26.90024
C09  36295215.39023       470.90023        19.80023
C07  36605838.15025       110.53625        31.20025
C06  35543471.71125       -14.98425        32.10025
C03  36833122.50424         4.25024        25.40024
E08  25284816.63024     -2083.49224        25.40024
E25  27256942.85624     -1581.35024        23.60024
E34  25942659.31524      2725.25024        28.00024
E36  25367356.38924       762.18424        25.70024
> 2024 12 14 08 02 59.4186065  0 29                      
G02  24157865.33524      3612.75024        23.70024
G04  22175964.07724     -2417.95024        26.90024
G08  19998873.64525       602.14225        31.50025
G16  21865276.86123     -1799.45023        21.20023
G26  23796244.28023     -2278.80023        22.50023
G27  20329865.80423     -1645.15023        22.00023
G31  24181101.64924     -3242.75024        26.40024
J02  39348246.35326        26.84526        37.30026
J03  37057683.87625       -46.22825        30.60025
J04  36931798.62524      -298.90024        25.30024
R14  20853449.13524      -991.35024        26.40024
R17  19592216.56825      1626.02625        29.90025
C60  38507108.16124       -26.95024        25.80024
C44  22675809.24123     -1676.80023        22.60023
C43  24876305.36924      3209.85024        24.70024
C39  35885253.13325      -399.42425        33.00025
C34  21799681.07225      1500.46525        32.30025
C26  25687958.37424     -2273.85024        29.00024
C24  21992236.86826      -648.60326        35.90026
C16  35778587.27725       -19.13025        32.30025
C12  21998829.60426      -170.07126        36.80026
C11  23197024.51123      2729.80023        23.40023
C07  36605809.40325       111.35225        33.10025
C06  35543473.54225       -14.06325        33.70025
C02  37981550.39724       -43.50024        27.20024
E02  24116746.10122      -546.75022        17.20022
E25  27257241.78124     -1570.75624        24.10024
E34  25942125.11824      2728.65024        25.80024
E36  25367224.51324       770.40924        25.70024
> 2024 12 14 08 03 00.4186065  0 30                      
G04  22176413.24724     -2419.50024        24.30024
G08  19998762.50425       603.73225        31.80025
G26  23796711.13823     -2283.35023        22.00023
G31  24181742.38724     -3241.95024        26.60024
J02  39348246.43525        24.49025        35.20025
J03  37057731.62524       -47.65024        26.70024
J04  36931859.56424      -298.80024        26.30024
R14  20853607.20725      -992.25025        31.30025
R18  22101729.55023      4298.00023        19.90023
R17  19591927.94924      1621.05024        27.30024
C60  38507125.33124        34.95024        29.00024
C59  37324543.01525       -21.20025        30.10025
C44  22676151.68624     -1678.25024        23.50024
C43  24875690.87624      3209.90024        25.60024
C39  35885328.46324      -400.95024        28.70024
C34  21799410.74125      1499.70025        29.50025
C26  25688403.64725     -2275.37125        30.60025
C24  21992363.46226      -650.43726        36.00026
C16  35778587.35825       -22.78825        33.00025
C12  21998862.96325      -172.01025        32.50025
C11  23196494.56024      2727.75024        26.60024
C07  36605791.49725       111.63725        34.40025
C06  35543479.62024       -14.34324        29.30024
C04  38497942.38824        19.90024        27.30024
C01  37572650.95424       -35.80024        28.00024
E03  27615014.48223     -2907.65023        18.00023
E08  25285614.79223     -2080.75023        20.30023
E25  27257596.21823     -1587.25023        22.50023
E34  25941629.04324      2722.79024        26.80024
E36  25367089.08824       753.60024        28.60024
> 2024 12 14 08 03 01.4186065  0 29                      
G02  24156508.56423      3617.95023        19.60023
G04  22176876.43524     -2423.75024        24.00024
G08  19998655.78525       603.30625        29.90025
G16  21865993.15523     -1796.50023        20.20023
G26  23797129.95624     -2277.05024        26.30024
G27  20330514.64423     -1643.05023        20.90023
G31  24182318.29624     -3236.90024        27.90024
J02  39348247.64225        26.59925        31.80025
J03  37057698.95524       -49.75024        28.30024
J04  36931901.84323      -299.00023        21.80023
R14  20853792.78625      -990.15825        34.90025
R18  22100962.98823      4296.10023        23.10023
R17  19591641.65524      1625.10024        28.30024
C60  38507121.14124       -12.85024        27.80024
C44  22676456.58224     -1674.65024        25.20024
C39  35885408.51525      -401.43625        30.10025
C34  21799110.65624      1499.75024        29.10024
C33  26836409.10723     -2288.85023        17.50023
C26  25688830.25925     -2271.82025        32.10025
C24  21992486.38525      -647.78625        34.30025
C16  35778590.36425       -20.81125        33.40025
C12  21998895.64825      -170.77125        33.30025
C11  23195961.53724      2734.15024        26.10024
C07  36605761.22525       109.50725        30.80025
C06  35543475.43124       -12.90024        28.70024
E08  25285999.73324     -2077.47824        25.00024
E25  27257830.96323     -1584.30023        22.20023
E34  25941123.30124      2725.71324        26.00024
E36  25366919.11425       758.70725        30.30025
> 2024 12 14 08 03 02.4186065  0 24                      
G04  22177342.10924     -2421.55024        26.70024
G08  19998530.86925       602.11725        31.40025
G16  21866331.41823     -1801.95023        23.40023
G26  23797556.95823     -2283.40023        22.30023
G31  24182957.85025     -3243.35325        31.90025
J02  39348231.25025        25.93625        32.20025
J03  37057727.23324       -49.55024        26.30024
R14  20853998.54125      -989.12925        31.90025
R17  19591317.37724      1621.50024        25.60024
C60  38507125.43624        -7.90024        27.10024
C44  22676781.65524     -1681.30024        23.60024
C43  24874463.93123      3207.70023        22.00023
C39  35885485.65924      -401.25024        26.60024
C34  21798832.84624      1498.25024        28.10024
C26  25689293.23625     -2276.86525        33.60025
C24  21992606.39925      -649.76525        35.20025
C16  35778602.15325       -19.65125        31.00025
C12  21998926.62425      -172.15025        32.20025
C11  23195442.09324      2732.15024        25.20024
C07  36605748.73125       111.96025        32.10025
C06  35543477.62624       -14.30024        27.40024
E08  25286386.86223     -2079.95023        22.00023
E34  25940589.76724      2724.09924        29.10024
E36  25366758.22324       764.81224        28.30024
> 2024 12 14 08 03 03.4186065  0 28                      
G04  22177799.41624     -2424.25024        23.70024
G08  19998420.96824       603.04524        29.20024
G16  21866700.58523     -1799.50023        23.10023
G26  23798008.56924     -2283.15024        24.60024
G31  24183578.54424     -3239.50024        26.30024
J02  39348226.87625        17.54925        30.80025
J03  37057744.14524       -43.40024        26.90024
R14  20854171.64425      -987.11625        29.50025
R17  19591024.60324      1626.65024        26.10024
C60  38507134.55324        -6.70024        27.20024
C59  37324564.82924       -32.30024        29.30024
C44  22677091.46324     -1673.95024        25.10024
C39  35885562.52924      -398.30024        26.10024
C34  21798552.96324      1498.85024        27.80024
C26  25689731.95625     -2275.84625        34.90025
C24  21992732.43525      -648.63225        31.80025
C16  35778599.27825       -18.93825        31.20025
C12  21998959.72425      -171.03925        29.60025
C11  23194913.98223      2730.55023        22.80023
C09  36294763.94522       463.60022        17.10022
C07  36605724.87124       114.50024        28.70024
C06  35543485.54424       -10.65024        26.80024
C04  38497953.40924        -2.30024        26.50024
C03  36833125.84523       -36.25023        22.80023
C01  37572648.18424        18.95024        27.40024
E08  25286790.20724     -2078.56624        24.20024
E34  25940070.35024      2726.25624        26.30024
E36  25366638.42924       761.60024        26.00024
> 2024 12 14 08 03 04.4186065  0 25                      
G04  22178258.44823     -2419.05023        23.00023
G08  19998306.79725       603.95225        30.90025
G16  21867032.20623     -1807.30023        21.50023
G26  23798443.01823     -2280.15023        22.00023
G31  24184197.96525     -3241.18925        30.30025
