     3.03           OBSERVATION DATA    M                   RINEX VERSION / TYPE
GnssLogger          HUAWEI 12           20241213 033204 UTC PGM / RUN BY / DATE
Google GnssLogger                                           MARKER NAME
Unknown                                                     MARKER NUMBER
Unknown             Unknown                                 OBSERVER / AGENCY
Unknown             GnssLogger          v3.0.0.10           REC # / TYPE / VERS
Unknown             Unknown                                 ANT # / TYPE
        0.0000        0.0000        0.0000                  APPROX POSITION XYZ
        0.0000        0.0000        0.0000                  ANTENNA: DELTA H/E/N
G    8 C1C L1C D1C S1C C5Q L5Q D5Q S5Q                      SYS / # / OBS TYPES
S    3 C0C D0C S0C                                          SYS / # / OBS TYPES
R    4 C1C L1C D1C S1C                                      SYS / # / OBS TYPES
J    4 C1C L1C D1C S1C                                      SYS / # / OBS TYPES
C   11 C0Q D0Q S0Q C2I L2I D2I S2I C7Q L7Q D7Q S7Q          SYS / # / OBS TYPES
E   12 C1A L1A D1A S1A C5Q L5Q D5Q S5Q C7X L7X D7X S7X      SYS / # / OBS TYPES
  2024    12    13    03    32   04.0000000     GALILEO     TIME OF FIRST OBS
 5 R01  1 R08  6 R11  0 R12 -1 R13 -2                       GLONASS SLOT / FRQ #
G L1C                                                       SYS / PHASE SHIFT
G L5Q  0.00000                                              SYS / PHASE SHIFT
R L1C                                                       SYS / PHASE SHIFT
J L1C                                                       SYS / PHASE SHIFT
C L2I                                                       SYS / PHASE SHIFT
C L7Q  0.00000                                              SYS / PHASE SHIFT
E L1A  0.00000                                              SYS / PHASE SHIFT
E L5Q  0.00000                                              SYS / PHASE SHIFT
E L7X                                                       SYS / PHASE SHIFT

 C1C    0.000 C1P    0.000 C2C    0.000 C2P    0.000        GLONASS COD/PHS/BIS
                                                            END OF HEADER
> 2024 12 13 03 32 04.0001267  0 42                      
E08  25090227.697 6        -0.000 6     -1082.389 6        38.000 6                        -0.000 5      -808.415 5        33.000 5                                                                
G32  20690155.503 7        -0.000 7      -243.123 7        43.000 7  20690165.097 5        -0.000 5      -181.621 5        34.000 5
R12  19747425.44227         0.00027       797.45927        45.00027
G25  22309675.433 6        -0.000 6     -2643.651 6        38.000 6                                                                
G10  23529085.75315        -0.00015     -3016.19715        30.00015                                                                
C21                                        17.00022                        -0.00012     -2852.88712        17.00012                                                                
C06                                                  36566524.022 6         0.000 6       605.912 6        39.000 6                                                                
E07  23438460.292 4         0.000 4      1191.649 4        29.000 4                         0.00025       889.72525        32.00025                         0.00024      2705.95724        27.00024
G26  20995825.093 7         0.000 7      2675.143 7        42.000 7  20995836.48514         0.00014      1996.88414        27.00014
R01  19191940.89626        -0.00026      -325.37926        37.00026
G03                         0.00012      2621.02312        14.00012                                                                
E02  26748289.844 5        -0.000 5     -2070.267 5        32.000 5                        -0.00014     -1546.70714        26.00014                                                                
C40                                        16.00022  39521404.10114         0.00014      2264.31414        25.00014                         0.00022      1706.21722        17.00022
C09                                                  37839585.200 6         0.000 6       570.528 6        41.000 6                                                                
C44                                        22.00023  25879926.60014         0.00014      2677.91214        27.00014                                                                
C25                                        30.00025  23823540.40614         0.00014      2332.35214        26.00014                         0.00024      1759.43424        25.00024
C07                                                  39236784.739 4         0.000 4      1918.663 4        28.000 4                                                                
R13  22359017.97424         0.00024      3223.54124        29.00024
C38                                        33.00025  38873026.464 5        -0.000 5     -1393.179 5        34.000 5                        -0.00022     -1053.34222        13.00022
C10                                                  40117529.71214         0.00014      1727.93114        26.00014                                                                
E30                                                                                                                                                        -0.00024     -1283.37524        28.00024
S137                                        36.00026
C26                                        35.00025  24154977.157 6        -0.000 6     -1736.508 6        38.000 6                        -0.00024     -1309.78924        28.00024
C02                                                  37794164.24515         0.00015       482.61815        34.00015                                                                
C33                                        45.00027                                                                                         0.00024      1033.86724        27.00024
C24                                        46.00027  21604843.878 6         0.000 6        86.276 6        38.000 6                         0.00024        67.20324        24.00024
J04                         0.00011       511.51611        12.00011
R08  22568179.87426        -0.00026     -3453.17526        36.00026
C01                                                  37482473.02417         0.00017       487.64417        42.00017                                                                
C14                                                  21963372.574 6        -0.000 6      -287.358 6        38.000 6                                                                
C03                                                  36744356.41115         0.00015       490.54815        35.00015                                                                
E27  24595375.576 5         0.000 5      2436.937 5        35.000 5                         0.00022      1821.25122        17.00022                                                                
S128                                        34.00025
C35                                                                         0.00013      1662.06213        18.00013                                                                
C39                                        37.00026  36500713.282 7         0.000 7       643.366 7        45.000 7                                                                
R11  21271422.50127        -0.00027     -2431.53627        45.00027
G29  23096428.275 6         0.000 6      1635.525 6        41.000 6                                                                
C16                                                  36836550.986 6         0.000 6       592.794 6        41.000 6                                                                
C42                                        38.00026                                                                                        -0.00024     -1318.90424        25.00024
C04                                                  38419330.15116         0.00016       480.33216        39.00016                                                                
C08                                                                        -0.00012     -1521.38012        17.00012                                                                
G16  23587796.50813         0.00013      4236.93313        23.00013                                                                
> 2024 12 13 03 32 05.0001269  0 42                      
E08  25090494.212 6        -0.000 6     -1083.569 6        38.000 6                        -0.000 5      -809.162 5        32.000 5                                                                
G32  20690262.829 7        -0.000 7      -244.616 7        43.000 7  20690270.923 5        -0.000 5      -182.653 5        34.000 5
R12  19747333.70527         0.00027       796.01227        44.00027
G25  22310238.743 6        -0.000 6     -2644.809 6        38.000 6                                                                
G10  23529720.71315        -0.00015     -3017.30015        31.00015                                                                
C21                                        18.00023                        -0.00012     -2859.66012        16.00012                                                                
C06                                                  36566466.462 6         0.000 6       605.171 6        39.000 6                                                                
E07  23438290.30914         0.00014      1191.90814        28.00014                         0.000 5       889.063 5        32.000 5                         0.00024      2705.95724        27.00024
G26  20995375.404 6         0.000 6      2673.785 6        41.000 6  20995387.09614         0.00014      1995.12214        26.00014
R01  19192065.01026        -0.00026      -328.15926        37.00026
G03                         0.00012      2614.47812        15.00012                                                                
E02  26748744.629 5        -0.000 5     -2071.225 5        32.000 5                        -0.00014     -1546.47514        26.00014                                                                
C40                                        15.00022  39521030.86014         0.00014      2263.38114        25.00014                         0.00022      1704.98422        17.00022
C09                                                  37839534.835 6         0.000 6       569.709 6        41.000 6                                                                
C44                                        23.00023  25879474.21314         0.00014      2677.29414        26.00014                                                                
C25                                        30.00025  23823155.47314         0.00014      2330.45214        28.00014                         0.00024      1754.94824        25.00024
C07                                                  39236477.45214         0.00014      1918.52714        28.00014                                                                
R13  22358477.14825         0.00025      3220.35925        32.00025
C38                                        33.00025  38873349.340 5        -0.000 5     -1394.196 5        33.000 5                        -0.00021     -1055.05621        12.00021
C10                                                  40117253.90314         0.00014      1729.32014        25.00014                                                                
E30                                                                                                                                                        -0.00024     -1283.37524        29.00024
S137                                        35.00025
C26                                        36.00026  24155370.785 6        -0.000 6     -1737.506 6        37.000 6                        -0.00024     -1309.47324        27.00024
C02                                                  37794130.36815         0.00015       483.95315        33.00015                                                                
C33                                        44.00027                                                                                         0.00024      1033.29224        28.00024
C24                                        46.00027  21604890.645 6         0.000 6        85.137 6        39.000 6                         0.00024        65.32624        24.00024
J04                         0.00011       510.97011        10.00011
R08  22568884.38626        -0.00026     -3453.91226        36.00026
C01                                                  37482440.04717         0.00017       486.98817        42.00017                                                                
C14                                                  21963486.794 6        -0.000 6      -288.699 6        37.000 6                                                                
C03                                                  36744321.33615         0.00015       490.07515        35.00015                                                                
E27  24594970.556 5         0.000 5      2435.637 5        35.000 5                         0.00014      1820.22214        25.00014                                                                
S128                                        34.00025
C35                                                                         0.00012      1662.14412        17.00012                                                                
C39                                        37.00026  36500650.625 7         0.000 7       642.548 7        45.000 7                                                                
R11  21271935.44627        -0.00027     -2432.34127        45.00027
G29  23096180.347 6         0.000 6      1634.070 6        41.000 6                                                                
C16                                                  36836496.724 6         0.000 6       592.037 6        40.000 6                                                                
C42                                        37.00026                                                                                        -0.00024     -1319.71824        25.00024
C04                                                  38419297.77416         0.00016       480.28116        39.00016                                                                
C08                                                                        -0.00012     -1526.70312        17.00012                                                                
G16                         0.00012      4236.61512        17.00012                                                                
> 2024 12 13 03 32 06.0001272  0 42                      
E08  25090789.808 6        -0.000 6     -1085.876 6        38.000 6                        -0.000 5      -811.005 5        33.000 5                                                                
G32  20690397.436 7        -0.000 7      -247.153 7        43.000 7  20690407.329 5        -0.000 5      -184.395 5        33.000 5
R12  19747274.94627         0.00027       794.06827        44.00027
G25  22310831.733 6        -0.000 6     -2647.112 6        39.000 6                                                                
G10  23530386.25315        -0.00015     -3018.93815        30.00015                                                                
C21                                        18.00023                        -0.00012     -2865.53412        15.00012                                                                
C06                                                  36566441.579 6         0.000 6       603.095 6        38.000 6                                                                
E07  23438153.30414         0.00014      1189.59914        29.00014                         0.000 5       887.187 5        32.000 5                         0.00024      2705.95724        27.00024
G26  20994955.994 6         0.000 6      2671.086 6        41.000 6  20994969.18514         0.00014      1994.12614        26.00014
R01  19192219.10326        -0.00026      -329.16926        37.00026
G03                         0.00012      2612.45712        17.00012                                                                
E02  26749228.794 5        -0.000 5     -2073.465 5        33.000 5                        -0.00014     -1547.21814        25.00014                                                                
C40                                        15.00022  39520686.99814         0.00014      2262.40514        26.00014                         0.00022      1704.98022        17.00022
C09                                                  37839516.248 6         0.000 6       567.686 6        41.000 6                                                                
C44                                        23.00023  25879051.80514         0.00014      2674.31614        25.00014                                                                
C25                                        34.00025  23822802.91715         0.00015      2330.21815        31.00015                         0.00024      1755.88024        24.00024
C07                                                  39236197.44614         0.00014      1917.13414        27.00014                                                                
R13  22357966.30225         0.00025      3220.34225        32.00025
C38                                        34.00025  38873710.890 5        -0.000 5     -1396.325 5        34.000 5                        -0.00022     -1054.33522        13.00022
C10                                                  40117009.27214         0.00014      1731.21414        24.00014                                                                
E30                                                                                                                                                        -0.00024     -1283.37524        28.00024
S137                                        36.00026
C26                                        36.00026  24155793.792 6        -0.000 6     -1739.572 6        38.000 6                        -0.00024     -1311.36924        27.00024
C02                                                  37794124.67214         0.00014       484.04814        29.00014                                                                
C33                                        44.00027                                                                                         0.00024      1033.84124        28.00024
C24                                        46.00027  21604964.095 6         0.000 6        82.804 6        41.000 6                         0.00023        63.86723        23.00023
J04                         0.00011       509.70111        12.00011
R08  22569617.67926        -0.00026     -3455.07426        36.00026
C01                                                  37482436.14916         0.00016       485.71916        41.00016                                                                
C14                                                  21963632.793 6        -0.000 6      -291.430 6        38.000 6                                                                
C03                                                  36744317.13915         0.00015       490.62715        34.00015                                                                
E27  24594593.717 5         0.000 5      2433.148 5        33.000 5                         0.00014      1818.81214        25.00014                                                                
S128                                        33.00025
C35                                                                         0.00013      1660.02613        18.00013                                                                
C39                                        37.00026  36500617.049 7         0.000 7       640.522 7        45.000 7                                                                
R11  21272480.16827        -0.00027     -2434.61427        45.00027
G29  23095959.700 7         0.000 7      1631.550 7        42.000 7                                                                
C16                                                  36836474.839 6         0.000 6       590.030 6        41.000 6                                                                
C42                                        38.00026                                                                                        -0.00024     -1321.47424        24.00024
C04                                                  38419295.97516         0.00016       477.67016        38.00016                                                                
C08                                                                        -0.00012     -1526.55012        17.00012                                                                
G16                         0.00013      4236.88313        18.00013                                                                
> 2024 12 13 03 32 07.0001277  0 42                      
E08  25091145.961 6        -0.000 6     -1088.546 6        38.000 6                        -0.000 5      -812.966 5        33.000 5                                                                
G32  20690594.400 7        -0.000 7      -249.977 7        43.000 7  20690604.293 5        -0.000 5      -186.725 5        32.000 5
R12  19747275.24627         0.00027       790.44027        43.00027
G25  22311487.678 6        -0.000 6     -2649.793 6        40.000 6                                                                
G10  23531112.94915        -0.00015     -3021.12815        33.00015                                                                
C21                                        18.00023                        -0.00012     -2868.97812        15.00012                                                                
C06                                                  36566478.154 6         0.000 6       600.864 6        38.000 6                                                                
E07  23438081.95415         0.00015      1186.36615        32.00015                         0.000 5       885.302 5        33.000 5                         0.00024      2705.95724        26.00024
G26  20994599.841 6         0.000 6      2668.234 6        41.000 6  20994610.33414         0.00014      1993.47714        27.00014
R01  19192431.05626        -0.00026      -333.64726        36.00026
G03                         0.00012      2606.48812        17.00012                                                                
E02  26749775.316 5        -0.000 5     -2075.909 5        33.000 5                        -0.00014     -1548.93314        26.00014                                                                
C40                                        15.00022  39520403.69414         0.00014      2260.39314        26.00014                         0.00022      1703.23922        17.00022
C09                                                  37839557.020 7         0.000 7       565.400 7        42.000 7                                                                
C44                                        26.00024  25878692.95413         0.00013      2672.39313        22.00013                                                                
C25                                        33.00025  23822510.61915         0.00015      2327.67715        34.00015                         0.00024      1756.03324        24.00024
C07                                                  39235976.49914         0.00014      1915.55414        28.00014                                                                
R13  22357519.01225         0.00025      3216.27125        32.00025
C38                                        34.00025  38874126.402 5        -0.000 5     -1398.654 5        34.000 5                        -0.00022     -1057.06322        13.00022
C10                                                  40116824.30014         0.00014      1727.16614        27.00014                                                                
E30                                                                                                                                                        -0.00024     -1283.37524        28.00024
S137                                        36.00026
C26                                        37.00026  24156277.057 6        -0.000 6     -1741.903 6        37.000 6                        -0.00024     -1313.41024        27.00024
C02                                                  37794180.43315         0.00015       483.24315        31.00015                                                                
C33                                        43.00027                                                                                         0.00024      1030.15824        29.00024
C24                                        47.00027  21605097.502 7         0.000 7        80.137 7        42.000 7                         0.00023        59.71323        22.00023
J04                         0.00012       506.88712        14.00012
R08  22570410.33025        -0.00025     -3458.56125        35.00025
C01                                                  37482492.81017         0.00017       482.67017        42.00017                                                                
C14                                                  21963840.550 6        -0.000 6      -294.167 6        38.000 6                                                                
C03                                                  36744373.50015         0.00015       489.65315        35.00015                                                                
E27  24594276.237 5         0.000 5      2430.534 5        31.000 5                         0.00014      1816.76114        27.00014                                                                
S128                                        34.00025
C35                                                                         0.00013      1661.93713        18.00013                                                                
C39                                        36.00026  36500643.430 7         0.000 7       638.313 7        44.000 7                                                                
R11  21273086.34927        -0.00027     -2437.25427        45.00027
G29  23095799.311 7         0.000 7      1628.673 7        42.000 7                                                                
C16                                                  36836513.512 7         0.000 7       587.691 7        42.000 7                                                                
C42                                        36.00026                                                                                        -0.00024     -1320.67824        25.00024
C04                                                  38419355.93316         0.00016       475.51416        38.00016                                                                
C08                                                                        -0.00012     -1528.59312        17.00012                                                                
G16                         0.00013      4233.66113        19.00013                                                                
> 2024 12 13 03 32 08.0001280  0 42                      
E08  25091443.955 6                     -1090.720 6        38.000 6                                      -814.474 5        33.000 5                                                                
G32  20690733.503 7                      -252.361 7        42.000 7  20690742.197 5                      -188.542 5        32.000 5
R12  19747219.48427                       788.37927        43.00027
G25  22312082.167 6                     -2651.926 6        39.000 6                                                                
G10  23531783.28515                     -3021.97215        33.00015                                                                
C21                                        18.00023                                     -2867.79012        15.00012                                                                
C06                                                  36566453.271 6                       599.075 6        38.000 6                                                                
E07  23437948.54615                      1183.12315        32.00015                                       883.656 5        33.000 5                                      2705.95724        27.00024
G26  20994182.830 6                      2665.934 6        41.000 6  20994192.42314                      1990.28914        26.00014
R01  19192589.64726                      -336.99326        37.00026
G03                                      2604.58612        16.00012                                                                
E02  26750261.879 5                     -2077.968 5        33.000 5                                     -1552.36514        26.00014                                                                
C40                                        16.00022  39520062.83014                      2259.05914        25.00014                                      1701.82722        17.00022
C09                                                  37839538.732 7                       563.620 7        42.000 7                                                                
C44                                        26.00024  25878273.54413                      2668.65813        23.00013                                                                
C25                                        34.00025  23822158.36316                      2325.43916        36.00016                                      1753.07824        24.00024
C07                                                  39235695.59314                      1910.93414        27.00014                                                                
R13  22357010.56425                      3213.64825        33.00025
C38                                        34.00025  38874486.753 5                     -1400.503 5        34.000 5                                     -1057.81222        13.00022
C10                                                  40116583.86714                      1724.34314        27.00014                                                                
E30                                                                                                                                                                     -1283.37524        28.00024
S137                                        36.00026
C26                                        36.00026  24156701.264 6                     -1743.769 6        37.000 6                                     -1312.74524        28.00024
C02                                                  37794176.53615                       486.81315        31.00015                                                                
C33                                        44.00027                                                                                                      1027.85824        29.00024
C24                                        47.00027  21605172.151 7                        78.018 7        43.000 7                                        55.75223        23.00023
J04                                       501.86412        15.00012
R08  22571140.02525                     -3461.63025        35.00025
C01                                                  37482488.91316                       479.73316        41.00016                                                                
C14                                                  21963986.549 6                      -296.544 6        39.000 6                                                                
C03                                                  36744370.80115                       487.91015        35.00015                                                                
E27  24593908.691 5                      2428.286 5        32.000 5                                      1814.37714        27.00014                                                                
S128                                        34.00025
C35                                                                                      1661.61313        18.00013                                                                
C39                                        36.00026  36500610.453 7                       636.442 7        44.000 7                                                                
R11  21273630.77227                     -2439.28827        45.00027
G29  23095580.163 7                      1626.187 7        42.000 7                                                                
C16                                                  36836490.428 7                       585.939 7        42.000 7                                                                
C42                                        38.00026                                                                                                     -1324.37924        25.00024
C04                                                  38419354.43416                       473.85916        39.00016                                                                
C08                                                                                     -1531.28312        17.00012                                                                
G16                                      4227.25613        19.00013                                                                
> 2024 12 13 03 32 09.0001282  0 42                      
E08  25091711.969 6        -0.000 6     -1092.801 6        38.000 6                        -0.000 5      -815.905 5        33.000 5                                                                
G32  20690842.628 7        -0.000 7      -254.652 7        43.000 7  20690850.123 5        -0.000 5      -190.260 5        33.000 5
R12  19747132.54527         0.00027       785.90927        42.00027
G25  22312645.177 6        -0.000 6     -2653.909 6        38.000 6                                                                
G10  23532420.64415        -0.00015     -3026.39315        34.00015                                                                
C21                                        18.00023                        -0.00012     -2864.14012        14.00012                                                                
C06                                                  36566395.711 6         0.000 6       597.010 6        37.000 6                                                                
E07  23437787.55715         0.00015      1181.35815        33.00015                         0.000 5       881.974 5        32.000 5                         0.00024      2705.95724        26.00024
G26  20993736.738 6         0.000 6      2663.561 6        41.000 6  20993745.13314         0.00014      1990.71914        27.00014
R01  19192712.26226        -0.00026      -339.40126        37.00026
G03                         0.00012      2601.72712        16.00012                                                                
E02  26750717.564 5        -0.000 5     -2079.859 5        34.000 5                        -0.00014     -1553.24914        25.00014                                                                
C40                                        18.00023  39519693.78513         0.00013      2256.32813        23.00013                         0.00022      1698.75222        16.00022
C09                                                  37839489.866 7         0.000 7       561.880 7        42.000 7                                                                
C44                                        26.00024  25877825.05414         0.00014      2666.58014        26.00014                                                                
C25                                        35.00025  23821777.62716         0.00016      2323.53716        38.00016                         0.00024      1750.29324        24.00024
C07                                                  39235387.10714         0.00014      1908.13614        26.00014                                                                
R13  22356470.33825         0.00025      3212.60825        35.00025
C38                                        33.00025  38874816.225 5        -0.000 5     -1402.407 5        35.000 5                        -0.00021     -1059.30121        12.00021
C10                                                  40116308.65714         0.00014      1720.69314        24.00014                                                                
E30                                                                                                                                                        -0.00024     -1283.37524        27.00024
S137                                        36.00026
C26                                        35.00025  24157095.191 6        -0.000 6     -1745.559 6        38.000 6                        -0.00024     -1313.72424        27.00024
C02                                                  37794139.96113         0.00013       484.20013        21.00013                                                                
C33                                        43.00027                                                                                         0.00025      1025.39125        30.00025
C24                                        47.00027  21605218.618 7         0.000 7        75.927 7        44.000 7                         0.00024        54.94724        25.00024
J04                         0.00012       499.77912        15.00012
R08  22571843.93825        -0.00025     -3463.75125        33.00025
C01                                                  37482456.23616         0.00016       477.91516        40.00016                                                                
C14                                                  21964103.168 6        -0.000 6      -299.002 6        39.000 6                                                                
C03                                                  36744336.92515         0.00015       486.07215        34.00015                                                                
E27  24593508.768 5         0.000 5      2426.137 5        32.000 5                         0.00014      1812.48414        28.00014                                                                
S128                                        34.00025
C35                                                                         0.00013      1658.59613        18.00013                                                                
C39                                        35.00025  36500548.996 7         0.000 7       634.771 7        43.000 7                                                                
R11  21274146.41527        -0.00027     -2441.32427        45.00027
G29  23095331.934 7         0.000 7      1623.925 7        43.000 7                                                                
C16                                                  36836437.365 7         0.000 7       584.183 7        42.000 7                                                                
C42                                        39.00026                                                                                        -0.00024     -1327.22024        24.00024
C04                                                  38419325.05516         0.00016       471.60916        37.00016                                                                
C08                                                                        -0.00012     -1533.59612        17.00012                                                                
G16  23584183.41013         0.00013      4226.34413        20.00013                                                                
> 2024 12 13 03 32 10.0001287  0 42                      
E08  25092070.521 6        -0.000 6     -1095.091 6        38.000 6                        -0.000 5      -818.005 5        34.000 5                                                                
G32  20691041.090 7        -0.000 7      -257.164 7        43.000 7  20691048.585 5        -0.000 5      -192.249 5        32.000 5
R12  19747125.64927         0.00027       783.43527        42.00027
G25  22313300.224 6        -0.000 6     -2656.003 6        38.000 6                                                                
G10  23533151.23825        -0.00025     -3028.41525        34.00025                        -0.00023     -2264.73123        19.00023
C21                                        18.00023                        -0.00012     -2869.78312        14.00012                                                                
C06                                                  36566431.386 6         0.000 6       595.399 6        37.000 6                                                                
E07  23437712.60925         0.00025      1178.64125        33.00025                         0.000 5       880.343 5        32.000 5                         0.00024      2705.95724        27.00024
G26  20993380.285 6         0.000 6      2661.109 6        41.000 6  20993387.18014         0.00014      1989.19714        26.00014
R01  19192918.51926        -0.00026      -342.21026        36.00026
G03                         0.00012      2598.68312        15.00012                                                                
E02  26751261.387 5        -0.000 5     -2081.673 5        33.000 5                        -0.00014     -1554.07914        26.00014                                                                
C40                                        19.00023  39519416.17713         0.00013      2254.95513        22.00013                                                                
C09                                                  37839532.737 6         0.000 6       560.063 6        41.000 6                                                                
C44                                        26.00024  25877466.20314         0.00014      2664.39614        27.00014                                                                
C25                                        37.00026  23821485.92826         0.00026      2321.12226        39.00026                         0.00023      1747.42323        22.00023
C07                                                  39235168.55814         0.00014      1905.56214        25.00014                                                                
R13  22356006.25925         0.00025      3211.12825        35.00025
C38                                        33.00025  38875235.335 6        -0.000 6     -1404.181 6        36.000 6                        -0.00022     -1057.44122        13.00022
C10                                                  40116121.58713         0.00013      1718.46313        21.00013                                                                
E30                                                                                                                                                        -0.00024     -1283.37524        27.00024
S137                                        35.00025
C26                                        35.00025  24157581.454 6        -0.000 6     -1747.665 6        39.000 6                        -0.00024     -1316.22824        28.00024
C02                                                  37794193.32413         0.00013       498.16413        22.00013                                                                
C33                                        42.00027                                                                                         0.00025      1024.45925        30.00025
C24                                        46.00027  21605353.525 7         0.000 7        73.898 7        45.000 7                         0.00024        54.02524        26.00024
J04                         0.00012       500.59412        15.00012
R08  22572629.39425        -0.00025     -3465.66725        34.00025
C01                                                  37482513.79616         0.00016       477.12216        40.00016                                                                
C14                                                  21964305.827 6        -0.000 6      -301.496 6        38.000 6                                                                
C03                                                  36744393.58615         0.00015       483.14615        34.00015                                                                
E27  24593199.382 5         0.000 5      2424.138 5        31.000 5                         0.00014      1810.61114        29.00014                                                                
S128                                        35.00025
C35                                                                         0.00013      1657.76113        18.00013                                                                
C39                                        33.00025  36500576.876 7         0.000 7       632.918 7        44.000 7                                                                
R11  21274744.20127        -0.00027     -2442.94127        45.00027
G29  23095174.244 7         0.000 7      1621.486 7        43.000 7                                                                
C16                                                  36836474.839 7         0.000 7       582.328 7        42.000 7                                                                
C42                                        39.00026                                                                                        -0.00023     -1329.94523        23.00023
C04                                                  38419385.91316         0.00016       469.15116        37.00016                                                                
C08                                                                        -0.00012     -1536.98112        16.00012                                                                
G16  23583527.76314         0.00014      4223.60214        24.00014                                                                
> 2024 12 13 03 32 11.0001290  0 42                      
E08  25092368.815 6        -0.000 6     -1097.214 6        38.000 6                        -0.000 5      -819.491 5        33.000 5                                                                
G32  20691179.894 7        -0.000 7      -259.524 7        42.000 7  20691187.989 5        -0.000 5      -193.948 5        31.000 5
R12  19747063.59227         0.00027       780.79827        42.00027
G25  22313896.511 6        -0.000 6     -2658.121 6        39.000 6                                                                
G10  23533817.377 5        -0.000 5     -3030.022 5        32.000 5                        -0.00021     -2269.30021        11.00021
C21                                        18.00023                        -0.00012     -2869.08912        13.00012                                                                
C06                                                  36566409.801 6         0.000 6       593.677 6        37.000 6                                                                
E07  23437579.501 5         0.000 5      1176.870 5        35.000 5                         0.000 5       878.905 5        33.000 5                         0.00024      2705.95724        26.00024
G26  20992962.974 7         0.000 7      2658.905 7        42.000 7  20992970.76914         0.00014      1987.06714        26.00014
R01  19193072.31326        -0.00026      -344.79826        36.00026
G03                         0.00012      2601.85112        13.00012                                                                
E02  26751748.850 5        -0.000 5     -2083.656 5        33.000 5                        -0.00014     -1556.19014        25.00014                                                                
C40                                        20.00023  39519075.01414         0.00014      2252.79414        24.00014                                                                
C09                                                  37839514.449 7         0.000 7       558.340 7        42.000 7                                                                
C44                                        28.00024  25877047.99214         0.00014      2663.39014        25.00014                                                                
C25                                        37.00026  23821127.676 6         0.000 6      2319.254 6        38.000 6                         0.00023      1749.29723        23.00023
C07                                                  39234890.95014         0.00014      1904.21614        26.00014                                                                
R13  22355496.01225         0.00025      3208.10425        34.00025
C38                                        33.00025  38875595.385 6        -0.000 6     -1406.067 6        37.000 6                        -0.00022     -1058.81722        13.00022
C10                                                  40115879.05514         0.00014      1715.97414        25.00014                                                                
E30                                                                                                                                                        -0.00024     -1283.37524        28.00024
S137                                        36.00026
C26                                        36.00026  24158008.059 6        -0.000 6     -1749.490 6        38.000 6                        -0.00024     -1316.40924        27.00024
C02                                                  37794189.72713         0.00013       482.08813        21.00013                                                                
C33                                        43.00027                                                                                         0.00025      1022.14425        31.00025
C24                                        47.00027  21605428.173 7         0.000 7        71.813 7        45.000 7                         0.00024        52.93824        26.00024
J04                         0.00012       496.12412        15.00012
R08  22573368.38225        -0.00025     -3467.99625        35.00025
C01                                                  37482514.69516         0.00016       475.35216        41.00016                                                                
C14                                                  21964455.124 6        -0.000 6      -303.830 6        39.000 6                                                                
C03                                                  36744392.38615         0.00015       480.46415        35.00015                                                                
E27  24592827.939 4         0.000 4      2421.807 4        29.000 4                         0.00014      1809.86114        28.00014                                                                
S128                                        34.00025
C35                                                                         0.00013      1650.63013        18.00013                                                                
C39                                        34.00025  36500545.398 7         0.000 7       631.145 7        43.000 7                                                                
R11  21275292.82127        -0.00027     -2445.59227        45.00027
G29  23094955.995 7         0.000 7      1619.107 7        42.000 7                                                                
C16                                                  36836454.153 6         0.000 6       580.541 6        41.000 6                                                                
C42                                        38.00026                                                                                        -0.00023     -1329.36023        22.00023
C04                                                  38419385.01316         0.00016       469.08316        37.00016                                                                
C08                                                                        -0.00012     -1536.99012        17.00012                                                                
G16  23582828.94714         0.00014      4220.82814        27.00014                                                                
> 2024 12 13 03 32 12.0001295  0 42                      
E08  25092727.366 6        -0.000 6     -1099.145 6        38.000 6                        -0.000 5      -820.765 5        33.000 5                                                                
G32  20691378.657 7        -0.000 7      -261.751 7        42.000 7  20691387.650 5        -0.000 5      -195.633 5        32.000 5
R12  19747071.68726         0.00026       779.08426        41.00026
G25  22314555.755 6        -0.000 6     -2660.175 6        39.000 6                                                                
G10  23534539.877 5        -0.000 5     -3032.032 5        34.000 5                        -0.00022     -2265.04822        14.00022
C21                                        17.00022                        -0.00012     -2867.23712        13.00012                                                                
C06                                                  36566446.076 6         0.000 6       591.999 6        37.000 6                                                                
E07  23437503.354 5         0.000 5      1174.617 5        33.000 5                         0.000 5       877.334 5        33.000 5                         0.00024      2705.95724        26.00024
G26  20992608.020 7         0.000 7      2656.635 7        43.000 7  20992615.21514         0.00014      1983.55514        26.00014
R01  19193278.27026        -0.00026      -347.10726        36.00026
G03                         0.00012      2603.10912        14.00012                                                                
E02  26752296.870 5        -0.000 5     -2085.566 5        33.000 5                        -0.00014     -1556.09514        26.00014                                                                
C40                                        21.00023  39518792.60914         0.00014      2250.36714        25.00014                                                                
C09                                                  37839557.919 7         0.000 7       556.610 7        42.000 7                                                                
C44                                        29.00024  25876691.53914         0.00014      2662.35314        24.00014                                                                
C25                                        36.00026  23820831.482 6         0.000 6      2317.286 6        39.000 6                         0.00023      1746.17423        23.00023
C07                                                  39234676.29914         0.00014      1903.46314        28.00014                                                                
R13  22355048.12225         0.00025      3206.33025        34.00025
C38                                        33.00025  38876015.694 5        -0.000 5     -1407.667 5        35.000 5                        -0.00022     -1058.96822        14.00022
C10                                                  40115696.48114         0.00014      1715.31514        26.00014                                                                
E30                                                                                                                                                        -0.00024     -1283.37524        27.00024
S137                                        37.00026
C26                                        38.00026  24158491.324 6        -0.000 6     -1751.164 6        37.000 6                        -0.00024     -1320.38024        27.00024
C02                                                  37794249.68514         0.00014       474.86114        26.00014                                                                
C33                                        43.00027                                                                                         0.00025      1020.39325        30.00025
C24                                        46.00027  21605564.579 7         0.000 7        69.782 7        44.000 7                         0.00024        52.00924        25.00024
J04                         0.00012       500.06312        14.00012
R08  22574167.62925        -0.00025     -3470.22625        35.00025
C01                                                  37482574.95316         0.00016       473.15216        41.00016                                                                
C14                                                  21964665.279 6        -0.000 6      -306.187 6        40.000 6                                                                
C03                                                  36744451.14615         0.00015       478.23815        35.00015                                                                
E27  24592510.459 4         0.000 4      2419.441 4        28.000 4                         0.00014      1807.42714        28.00014                                                                
S128                                        35.00025
C35                                                                         0.00013      1652.15213        18.00013                                                                
C39                                        33.00025  36500573.579 7         0.000 7       629.487 7        42.000 7                                                                
R11  21275899.60127        -0.00027     -2447.10827        45.00027
G29  23094797.105 7         0.000 7      1616.812 7        42.000 7                                                                
C16                                                  36836492.527 7         0.000 7       578.868 7        42.000 7                                                                
C42                                        38.00026                                                                                        -0.00024     -1329.44624        25.00024
C04                                                  38419443.47316         0.00016       468.19616        38.00016                                                                
C08                                                                        -0.00012     -1539.03012        17.00012                                                                
