     4.01           OBSERVATION DATA    M                   RINEX VERSION / TYPE
GnssLogger          Xiaomi 14           20241207 082659 UTC PGM / RUN BY / DATE
Google GnssLogger                                           MARKER NAME
Unknown                                                     MARKER NUMBER
Unknown             Unknown                                 OBSERVER / AGENCY
Unknown             GnssLogger          v3.1.0.3            REC # / TYPE / VERS
Unknown             Unknown                                 ANT # / TYPE
 -2854035.9317  4667264.8389  3268186.2469                  APPROX POSITION XYZ
        0.0000        0.0000        0.0000                  ANTENNA: DELTA H/E/N
G    3 C1C D1C S1C                                          SYS / # / OBS TYPES
R    3 C1C D1C S1C                                          SYS / # / OBS TYPES
J    3 C1C D1C S1C                                          SYS / # / OBS TYPES
C    3 C2I D2I S2I                                          SYS / # / OBS TYPES
E    3 C1C D1C S1C                                          SYS / # / OBS TYPES
  2024    12    07    08    26   59.0000000     GPS         TIME OF FIRST OBS
 3 R15  0 R16 -1 R17  4                                     GLONASS SLOT / FRQ #
Xiaomi 22101320I (Android 14) HW Year: 2018 HW Model:       COMMENT
qcom;MPSS.HI.4.3.c2-00125-LC_ALL_PACK-1.48771.36;           COMMENT
                                                            END OF HEADER
> 2024 12 07 08 26 59.4197168  0 13                      
G07  23289390.51325      3085.77525        32.50025
G09  22256574.61725      -982.86025        29.70025
G16  21770895.24525     -1756.95825        30.30025
G27  20248508.97225     -1506.50625        34.70025
J02  39347397.88623         1.15023        21.10023
R16  20608119.31825      1638.78525        32.70025
R17  20861556.66726     -2313.57926        35.70026
C44  22599462.24025     -1557.75325        32.00025
C35  26489869.86723     -3071.95023        19.30023
C25  22658746.19925      1807.73425        32.70025
C09  36302380.10825       491.87325        32.80025
E27  25756439.01124      1249.95024        27.00024
E30  24243268.95725      -188.98325        31.30025
> 2024 12 07 08 27 00.4197168  0 13                      
G07  23288793.87725      3083.95725        33.30025
G09  22256764.93625      -985.16625        31.40025
G16  21771230.66525     -1758.80425        30.30025
G27  20248794.32525     -1508.66525        35.20025
R16  20607805.08725      1636.87825        34.10025
R17  20862001.81126     -2315.99626        35.90026
C44  22599758.98625     -1559.83925        33.40025
C35  26490431.03023     -3062.70023        22.70023
C25  22658397.19225      1805.92725        31.70025
C09  36302282.32725       490.21025        33.80025
E27  25756195.23124      1249.65024        28.90024
E29  26602804.33623       960.90023        22.60023
E30  24243304.88325      -190.60625        32.30025
> 2024 12 07 08 27 01.4197168  0 16                      
G07  23288211.17925      3081.95825        33.60025
G09  22256956.90125      -987.57625        31.20025
G16  21771565.33125     -1760.85025        30.40025
G27  20249081.62526     -1511.07026        36.50026
J02  39347343.07323         6.70023        20.40023
R16  20607507.79125      1634.90725        32.70025
R17  20862437.50726     -2318.74326        36.70026
C44  22600054.98025     -1562.26225        33.70025
C41  26523620.25223     -1501.55023        20.50023
C40  36310465.86022        48.15022        16.60022
C35  26491068.18723     -3071.70023        23.30023
C25  22658054.02825      1804.04925        33.40025
C09  36302188.59025       488.17825        33.90025
E27  25755955.79524      1247.05024        29.10024
E29  26602636.25023       956.45023        22.50023
E30  24243341.55625      -192.56625        33.00025
> 2024 12 07 08 27 02.4197168  0 14                      
G07  23287624.45525      3081.55125        34.20025
G09  22257135.24725      -988.50925        31.70025
G16  21771898.07025     -1761.34325        30.40025
G27  20249371.19426     -1511.93626        36.60026
R16  20607207.36925      1634.30225        32.00025
R17  20862860.78426     -2319.81426        36.20026
C44  22600355.94125     -1562.93225        33.20025
C41  26523914.01823     -1499.05023        22.80023
C35  26491640.76024     -3069.25024        24.50024
C25  22657703.54025      1803.34425        31.40025
C09  36302093.52525       487.73525        34.30025
E27  25755722.22624      1247.95024        29.40024
E29  26602445.55223       957.31423        23.40023
E30  24243382.29725      -192.93725        32.50025
> 2024 12 07 08 27 03.4197168  0 12                      
G07  23287027.07425      3079.50225        33.20025
G09  22257330.21925      -990.95225        31.40025
G16  21772243.83725     -1763.25525        29.70025
G27  20249660.00026     -1514.35626        36.40026
R16  20606900.18825      1632.22225        31.80025
R17  20863301.28526     -2322.51926        36.40026
C44  22600659.43725     -1565.32125        33.40025
C41  26524207.02123     -1501.65023        21.80023
C25  22657357.38625      1801.47025        32.00025
C09  36302002.19525       485.73925        33.90025
E27  25755480.99925      1245.40025        30.60025
E30  24243415.08125      -194.88125        32.50025
> 2024 12 07 08 27 04.4197168  0 14                      
G07  23286456.01125      3080.07725        32.80025
G09  22257522.72725      -990.76125        31.40025
G16  21772567.35525     -1762.78925        31.00025
G27  20249941.54726     -1514.19126        35.90026
J02  39347341.69223        -0.45023        19.30023
R16  20606596.83925      1632.81725        31.60025
R17  20863733.32726     -2322.59126        36.10026
C44  22600958.97125     -1565.13625        33.50025
C41  26524504.75723     -1496.60023        22.00023
C35  26492819.09223     -3070.50023        22.30023
C25  22657015.66425      1801.97925        32.50025
C09  36301909.00125       486.28125        33.90025
E27  25755245.70424      1246.65024        29.00024
E30  24243454.09525      -194.33125        32.90025
> 2024 12 07 08 27 05.4197168  0 16                      
G07  23285859.78025      3080.56025        32.70025
G08  20032021.86522       751.85022        17.30022
G09  22257708.35425      -990.90625        31.40025
G16  21772910.37325     -1762.27525        30.60025
G27  20250239.89626     -1514.05326        36.40026
J02  39347400.80623        -3.15023        22.20023
R16  20606277.91625      1633.28025        31.70025
R17  20864176.17626     -2322.61826        36.30026
C44  22601260.01825     -1564.92325        33.70025
C41  26524783.61923     -1499.10023        23.10023
C35  26493407.64024     -3072.05024        24.90024
C25  22656672.75725      1802.44325        31.80025
C09  36301811.62425       486.79125        34.20025
E27  25755011.02224      1247.95024        28.70024
E29  26601901.03223       951.85023        19.30023
E30  24243494.32325      -193.74325        33.20025
> 2024 12 07 08 27 06.4197168  0 12                      
G07  23285278.38925      3079.84225        33.30025
G09  22257886.63725      -991.92825        31.10025
G16  21773239.45225     -1762.97225        31.00025
G27  20250524.90526     -1515.16826        36.60026
R16  20605979.82925      1632.65125        31.00025
R17  20864610.18326     -2323.93626        35.70026
C44  22601560.01725     -1565.99725        33.30025
C35  26494004.43424     -3069.55024        25.00024
C25  22656323.40525      1801.68225        33.40025
C09  36301724.59125       486.19725        34.20025
E27  25754777.39024      1247.00024        28.70024
E30  24243529.00625      -194.30825        32.80025
> 2024 12 07 08 27 07.4197168  0 14                      
G07  23284693.56725      3080.78025        32.80025
G09  22258083.07525      -991.50325        31.50025
G16  21773568.09825     -1762.02225        30.80025
G27  20250815.77726     -1514.60726        36.00026
J02  39347356.71723        -7.35023        20.30023
R16  20605675.61325      1633.50425        32.00025
R17  20865035.66126     -2323.66226        36.30026
C44  22601858.68425     -1565.46325        33.50025
C41  26525361.59923     -1497.05023        22.10023
C35  26494594.49924     -3065.55024        24.80024
C25  22655977.51825      1802.74925        32.60025
C09  36301631.42925       487.00625        34.00025
E27  25754534.93225      1246.45025        30.70025
E30  24243567.15325      -193.40425        32.70025
> 2024 12 07 08 27 08.4197168  0 13                      
G07  23284110.11125      3079.52825        33.70025
G09  22258269.18625      -993.16225        31.60025
G16  21773914.89825     -1763.34725        30.90025
G27  20251093.62526     -1516.26626        36.10026
R16  20605382.65625      1632.16825        31.90025
R17  20865483.79226     -2325.60026        36.10026
C44  22602159.91625     -1567.02225        33.70025
C35  26495173.33924     -3073.40024        24.10024
C25  22655632.99725      1801.36425        31.60025
C09  36301534.53625       485.82725        34.50025
E27  25754294.73825      1243.75025        30.30025
E29  26601342.73923       955.90023        19.10023
E30  24243604.86725      -194.57725        33.50025
> 2024 12 07 08 27 09.4197168  0 14                      
G07  23283513.49425      3078.75425        32.60025
G09  22258452.92925      -994.46025        31.20025
G16  21774248.23725     -1764.06425        30.50025
G27  20251383.49426     -1517.34926        36.10026
J02  39347334.44323        -2.80023        19.50023
R16  20605053.15425      1631.52925        31.80025
R17  20865916.06226     -2326.96726        35.60026
C44  22602461.17725     -1568.09125        32.80025
C41  26525944.60623     -1501.70023        21.00023
C35  26495761.50124     -3071.15024        23.70024
C25  22655284.30825      1800.56425        32.80025
C09  36301441.87025       485.11925        33.40025
E27  25754058.17224      1246.30024        28.80024
E30  24243639.91325      -195.18725        33.10025
> 2024 12 07 08 27 10.4197168  0 16                      
G07  23282934.22825      3078.58925        32.50025
G09  22258642.63025      -994.92225        30.90025
G16  21774577.34225     -1764.32225        30.40025
G27  20251677.22326     -1517.99026        36.10026
R16  20604761.38825      1631.24525        31.60025
R17  20866344.99826     -2327.83226        35.70026
C44  22602765.39925     -1568.48625        33.30025
C41  26526229.34124     -1504.25024        24.30024
C35  26496351.42624     -3069.85024        24.70024
C25  22654942.17825      1800.55725        31.80025
C24  21963910.96922      -582.15022        14.70022
C09  36301348.86725       484.98725        33.80025
E27  25753819.47024      1245.95024        28.90024
E29  26600977.79423       949.85023        22.00023
E30  24243678.51925      -195.31325        32.70025
E36  27113671.76422     -1054.50022        14.50022
> 2024 12 07 08 27 11.4197168  0 15                      
G07  23282354.33725      3078.84725        32.80025
G09  22258837.70325      -995.19925        31.20025
G16  21774914.51625     -1764.15825        31.10025
G27  20251964.63226     -1518.20526        36.20026
J02  39347351.97123       -10.95023        20.00023
R16  20604458.20625      1631.41525        31.90025
R17  20866790.09726     -2328.19826        36.10026
C44  22603060.90225     -1568.71425        32.90025
C41  26526509.25524     -1505.55024        24.70024
C35  26496942.52424     -3073.20024        23.60024
C25  22654594.92625      1800.64925        32.50025
C09  36301253.44125       485.08725        33.30025
E27  25753584.64024      1247.20024        29.30024
E29  26600793.32924       951.80724        24.40024
E30  24243716.50025      -195.15125        32.60025
> 2024 12 07 08 27 12.4197168  0 12                      
G07  23281756.90525      3081.08925        30.80025
G09  22259035.92025      -993.40625        32.10025
G16  21775262.33025     -1761.69125        30.50025
G27  20252254.58626     -1516.14726        36.00026
R16  20604144.67825      1633.81725        31.40025
R17  20867208.66226     -2326.44926        37.00026
C44  22603364.64625     -1566.76825        34.00025
C25  22654249.32025      1803.11025        32.40025
C09  36301160.56025       487.54225        34.40025
E27  25753343.66124      1251.45024        26.10024
E29  26600620.40423       954.50023        22.30023
E30  24243747.73325      -192.59625        32.10025
> 2024 12 07 08 27 13.4197169  0 15                      
G07  23281198.30525      3082.77525        30.50025
G09  22259247.18825      -992.16025        31.40025
G16  21775636.38425     -1760.26425        30.90025
G27  20252573.17926     -1514.93426        36.00026
J02  39347406.80123         5.15023        19.90023
R16  20603866.98325      1635.51825        31.50025
R17  20867673.55426     -2325.41626        37.20026
C44  22603696.73025     -1565.54425        33.10025
C41  26527119.60123     -1500.35023        23.00023
C35  26498151.25523     -3068.15023        22.40023
C25  22653929.05525      1804.50225        32.60025
C09  36301099.91525       489.13425        34.20025
E27  25753141.51524      1252.20024        28.00024
E29  26600466.82424       954.89624        26.00024
E30  24243816.89925      -191.00125        32.60025
> 2024 12 07 08 27 14.4197169  0 13                      
G07  23280615.40625      3080.93925        32.20025
G09  22259436.25325      -994.48525        31.90025
G16  21775960.05725     -1761.95325        31.40025
G27  20252864.17426     -1517.16726        36.30026
R16  20603567.08825      1633.55225        32.20025
R17  20868114.14526     -2327.96726        36.70026
C44  22603999.71725     -1567.63525        33.40025
C41  26527421.98824     -1497.20024        23.80024
C35  26498739.94424     -3064.20024        24.10024
C25  22653586.88825      1802.83225        33.00025
C09  36301001.18025       487.37925        34.20025
E27  25752901.87724      1245.30024        28.70024
E30  24243852.17125      -192.70925        33.00025
> 2024 12 07 08 27 15.4197169  0 14                      
G07  23280028.13625      3080.57525        32.10025
G09  22259622.74825      -995.09325        31.30025
G16  21776281.75825     -1762.27325        31.00025
G27  20253156.49525     -1517.86925        35.30025
J02  39347395.32923         6.25023        19.50023
R16  20603240.93725      1633.31425        32.60025
R17  20868544.37126     -2328.81926        36.80026
C44  22604298.03425     -1568.16925        33.00025
C41  26527705.61523     -1495.15023        21.80023
C35  26499335.65624     -3069.00024        23.80024
C25  22653238.25325      1802.45125        32.50025
C09  36300916.06325       487.05225        32.80025
E27  25752664.16524      1246.00024        27.40024
E30  24243889.36925      -193.06725        31.20025
> 2024 12 07 08 27 16.4197169  0 13                      
G07  23279457.25125      3080.70025        32.90025
G09  22259815.73425      -995.46325        31.50025
G16  21776633.03425     -1762.12125        31.10025
G27  20253439.41926     -1518.13026        36.40026
R16  20602961.45025      1633.38425        31.70025
R17  20868977.49126     -2329.37526        36.90026
C44  22604599.54525     -1568.49925        33.20025
C35  26499902.18324     -3067.90024        23.90024
C25  22652894.01125      1802.48825        32.30025
C09  36300818.85025       487.17425        34.50025
E27  25752427.54924      1249.45024        29.30024
E29  26599926.13823       953.10023        20.30023
E30  24243925.26325      -192.75525        32.50025
> 2024 12 07 08 27 17.4197169  0 15                      
G07  23278860.73625      3079.73825        31.10025
G08  20030383.11022       738.15022        15.80022
G09  22260002.87625      -997.03125        31.50025
G16  21776966.17625     -1763.23125        30.90025
G27  20253727.89226     -1519.48526        36.80026
J02  39347386.32723         1.75023        19.80023
R16  20602660.23125      1632.30225        32.20025
R17  20869419.15826     -2331.03526        36.70026
C44  22604900.30925     -1569.81125        33.70025
C41  26528279.11023     -1500.90023        23.30023
C35  26500510.83424     -3067.10024        23.90024
C25  22652551.12125      1801.43925        32.30025
C09  36300724.78725       486.23725        34.70025
E27  25752189.58624      1246.75024        28.20024
E30  24243964.60825      -193.70425        33.40025
> 2024 12 07 08 27 18.4197169  0 13                      
G07  23278277.38125      3078.51525        32.20025
G09  22260199.28225      -998.41125        31.50025
G16  21777301.68525     -1764.35025        31.00025
G27  20254018.13326     -1520.96626        35.80026
R16  20602325.70425      1631.21525        32.60025
R17  20869859.89426     -2332.69126        36.60026
C44  22605206.13925     -1571.19425        33.30025
C35  26501105.36424     -3075.00024        24.10024
C25  22652197.70725      1800.51625        31.00025
C09  36300632.79225       485.18325        33.90025
E27  25751953.69124      1248.85024        28.40024
E29  26599562.00423       952.60023        20.30023
E30  24244001.82425      -194.74025        33.30025
> 2024 12 07 08 27 19.4197169  0 15                      
G07  23277687.80325      3080.07225        32.10025
G09  22260384.96725      -997.42725        31.80025
G16  21777634.86825     -1762.89525        31.40025
G27  20254309.34426     -1520.01626        36.50026
J02  39347404.76923         0.60023        20.90023
R16  20602037.41725      1632.68225        31.30025
R17  20870292.30826     -2331.94026        36.80026
C44  22605508.74325     -1570.20225        33.60025
C41  26528849.17123     -1498.85023        21.60023
C35  26501691.57223     -3071.75023        23.30023
C25  22651849.46225      1801.76925        32.00025
C09  36300536.37225       486.62825        34.20025
E27  25751718.76724      1250.20024        28.40024
E29  26599366.95223       948.80023        23.20023
E30  24244041.21025      -193.24525        33.30025
> 2024 12 07 08 27 20.4197169  0 14                      
G07  23277101.12525      3078.83125        32.30025
G09  22260575.65125      -999.07625        31.90025
G16  21777970.05225     -1763.95425        30.10025
G27  20254598.66026     -1521.57826        36.30026
R16  20601730.74525      1631.31725        31.70025
R17  20870726.42426     -2333.85726        36.80026
C44  22605808.55125     -1571.72025        33.80025
C41  26529121.99823     -1498.70023        23.00023
C35  26502282.47824     -3072.20024        23.50024
C25  22651511.01225      1800.79125        31.90025
C24  21965066.02822      -584.15022        17.20022
C09  36300445.55125       485.46625        34.20025
E27  25751478.64925      1246.95025        29.90025
E30  24244075.40325      -194.39525        33.10025
> 2024 12 07 08 27 21.4197169  0 14                      
G07  23276519.91925      3078.05225        32.60025
G09  22260764.91125     -1000.36625        33.10025
G16  21778309.20825     -1764.76225        31.40025
G27  20254883.85426     -1522.67826        36.60026
J02  39347410.27323         0.25023        20.30023
R16  20601418.15325      1630.61325        31.50025
R17  20871159.41526     -2335.18626        36.40026
C44  22606108.43525     -1572.81025        33.80025
C35  26502869.56324     -3073.45024        25.00024
C25  22651167.54125      1799.85225        31.50025
C09  36300351.50825       484.70025        34.20025
E27  25751245.80125      1245.85025        29.80025
E29  26599011.20623       949.65023        20.30023
E30  24244112.96825      -195.11025        33.40025
> 2024 12 07 08 27 22.4197169  0 14                      
G07  23275932.30625      3077.89825        31.30025
G09  22260959.75625     -1000.99025        31.90025
G16  21778653.35025     -1765.14425        30.30025
G27  20255179.12926     -1523.33226        36.60026
R16  20601116.84225      1630.32625        31.70025
R17  20871600.99026     -2336.06926        36.50026
C44  22606412.10525     -1573.39525        33.60025
C35  26503467.33023     -3072.15023        23.40023
C25  22650815.26525      1799.66925        31.50025
C09  36300256.15425       484.45225        34.10025
E27  25751005.34824      1247.05024        28.80024
E29  26598851.09723       950.70023        23.00023
E30  24244151.32125      -195.38125        34.20025
E36  27116184.65421     -1076.65021        11.80021
> 2024 12 07 08 27 23.4197169  0 15                      
G07  23275345.39725      3077.33125        32.00025
G09  22261146.01325     -1002.08925        32.80025
G16  21778976.01225     -1765.56725        31.00025
G27  20255464.91726     -1524.16026        36.40026
J02  39347406.74123        -1.15023        21.00023
R16  20600796.44925      1629.79825        31.70025
R17  20872045.66726     -2337.13326        36.90026
C44  22606713.78125     -1574.15925        33.70025
C41  26530005.34323     -1506.45023        21.60023
C35  26504049.91124     -3075.65024        23.90024
C25  22650466.39225      1799.14925        32.20025
C24  21965413.34423      -583.35023        20.40023
C09  36300165.10225       484.05325        33.40025
E27  25750765.59925      1245.75025        29.60025
E30  24244188.88125      -195.64525        33.60025
> 2024 12 07 08 27 24.4197169  0 15                      
G07  23274756.18725      3077.33025        30.30025
G08  20029392.20622       732.90022        16.10022
G09  22261348.25425     -1002.45125        31.80025
G16  21779314.36025     -1765.64025        31.00025
G27  20255755.59726     -1524.55926        36.10026
R16  20600501.03525      1629.78025        31.20025
R17  20872477.84926     -2337.81326        37.00026
C44  22607021.25025     -1574.59125        33.60025
C41  26530280.43424     -1504.05024        24.10024
C35  26504639.48523     -3075.80023        21.60023
C25  22650125.41025      1799.13725        31.40025
C09  36300069.35025       483.85625        34.20025
E27  25750531.04425      1245.40025        29.60025
E29  26598490.11423       946.20023        21.20023
E30  24244227.13625      -195.77325        33.30025
> 2024 12 07 08 27 25.4197169  0 14                      
G07  23274178.04925      3076.72925        32.10025
G09  22261528.89125     -1003.46825        32.10025
G16  21779646.99125     -1766.18025        30.60025
G27  20256049.55626     -1525.58526        36.40026
J02  39347411.88123         2.45023        19.80023
R16  20600211.29825      1629.16325        31.70025
R17  20872918.40626     -2338.97126        36.70026
C44  22607321.50425     -1575.48525        33.40025
C41  26530580.08923     -1499.70023        22.00023
C35  26505236.53423     -3077.15023        23.20023
C25  22649780.21125      1798.55025        31.70025
C09  36299980.77325       483.35825        34.20025
E27  25750292.27125      1245.40025        29.60025
E30  24244260.87525      -196.22225        33.20025
> 2024 12 07 08 27 26.4197169  0 15                      
G07  23273579.34524      3077.48524        29.10024
G08  20029080.56523       733.80023        20.20023
G09  22261727.93625     -1003.22125        31.30025
G16  21779984.83925     -1765.59925        30.30025
G27  20256342.43526     -1525.24126        36.00026
R16  20599902.19425      1629.92525        32.20025
R17  20873344.09426     -2338.92226        35.90026
C44  22607626.07525     -1575.11825        32.20025
C41  26530858.87824     -1498.80024        24.40024
C25  22649435.73125      1799.40625        33.70025
C24  21965756.33323      -589.35023        19.90023
C09  36299886.02125       484.12025        34.10025
E27  25750066.20924      1246.85024        23.80024
E29  26598114.31823       944.15023        21.60023
E30  24244295.03325      -195.43125        32.00025
> 2024 12 07 08 27 27.4197169  0 13                      
G07  23272995.80824      3079.22924        28.90024
G09  22261918.76325     -1001.88125        30.80025
G16  21780319.26725     -1763.69825        30.10025
G27  20256626.49726     -1523.83826        36.10026
J02  39347382.64223         2.25023        19.00023
R16  20599582.77425      1631.68125        32.90025
R17  20873781.95025     -2337.69125        35.40025
C44  22607924.82825     -1573.72425        32.50025
C41  26531142.04124     -1502.60024        24.40024
C25  22649087.83125      1801.00525        33.10025
C09  36299791.44625       485.97425        34.90025
E27  25749815.14224      1252.05024        25.40024
E30  24244338.66225      -193.63625        31.90025
> 2024 12 07 08 27 28.4197169  0 14                      
G07  23272414.42224      3080.26524        28.70024
G09  22262094.65125     -1001.28725        30.30025
G16  21780642.95325     -1762.76725        29.70025
G27  20256913.31026     -1523.22526        35.80026
R16  20599293.98425      1632.66825        31.80025
R17  20874221.35626     -2337.28426        35.60026
C44  22608226.32925     -1572.99125        31.70025
C41  26531439.34624     -1500.75024        24.70024
C25  22648745.67825      1801.95925        33.80025
C24  21965960.56123      -586.25023        20.10023
C09  36299698.72025       486.93525        33.90025
E27  25749566.52524      1249.90024        24.20024
E29  26597765.72923       944.20023        21.60023
E30  24244370.35025      -192.36225        31.30025
> 2024 12 07 08 27 29.4197169  0 17                      
G07  23271834.19824      3078.49824        28.70024
G08  20028699.17323       733.00023        19.30023
G09  22262294.18825     -1003.39525        31.00025
G16  21781003.17925     -1764.27125        30.00025
G27  20257204.58226     -1525.18926        36.00026
J02  39347413.00623         7.65023        19.70023
R16  20598987.77125      1631.12225        32.60025
R15  20872953.10922      -942.15022        14.20022
R17  20874662.82526     -2339.59926        35.90026
C44  22608526.89625     -1574.97425        32.00025
C41  26531718.32724     -1503.55024        23.50024
C35  26507609.31723     -3068.65023        18.70023
C25  22648400.19225      1800.34625        34.30025
C09  36299604.46025       485.37125        34.60025
E27  25749336.75824      1248.85024        25.70024
E29  26597581.53124       950.20024        23.60024
E30  24244408.89825      -194.03225        31.90025
> 2024 12 07 08 27 30.4197169  0 14                      
G07  23271248.52025      3078.33825        29.50025
G09  22262475.07925     -1004.02025        30.50025
G16  21781327.67024     -1764.55024        29.20024
G27  20257499.09526     -1525.90126        36.30026
R16  20598671.60625      1630.77325        33.10025
R17  20875095.84226     -2340.53526        36.00026
C44  22608828.90325     -1575.47625        32.50025
C41  26532016.43724     -1508.45024        24.30024
C25  22648052.54925      1800.13625        33.60025
C24  21966201.88523      -588.55023        21.20023
C09  36299507.44425       485.06325        34.30025
E27  25749103.63624      1248.60024        27.00024
E29  26597405.36924       940.30024        23.60024
E30  24244445.88925      -194.25225        31.70025
> 2024 12 07 08 27 31.4197169  0 15                      
G07  23270652.47725      3079.39825        29.60025
G08  20028416.83023       736.35023        19.60023
G09  22262675.28625     -1003.54325        31.10025
G16  21781658.88624     -1763.63624        29.30024
G27  20257789.83926     -1525.32626        35.90026
J02  39347406.47223         8.65023        20.00023
R16  20598384.65025      1631.81525        32.20025
R17  20875518.79426     -2340.07726        36.00026
C44  22609131.33925     -1574.97225        31.80025
C41  26532300.58524     -1500.10024        23.50024
C25  22647710.13125      1800.97925        34.30025
C09  36299419.25025       486.10625        34.00025
E27  25748866.74524      1250.05024        25.50024
E29  26597244.92523       945.55623        23.40023
E30  24244485.10725      -193.11325        31.40025
> 2024 12 07 08 27 32.4197169  0 14                      
G07  23270077.43925      3077.39225        29.80025
G09  22262865.01725     -1005.89125        30.70025
G16  21782010.80624     -1765.60524        29.10024
G27  20258077.90226     -1527.52526        35.60026
R16  20598051.84325      1629.86225        31.30025
R17  20875960.95126     -2342.62826        35.90026
C44  22609428.39625     -1577.09225        32.00025
C41  26532590.74823     -1501.35023        21.80023
C35  26509369.12423     -3069.00023        19.60023
C25  22647357.83825      1799.13425        34.00025
C24  21966441.92723      -583.65023        20.60023
C09  36299322.98025       484.35425        33.80025
E27  25748616.08224      1241.10024        24.70024
E30  24244520.74625      -195.04125        31.40025
> 2024 12 07 08 27 33.4197169  0 15                      
G07  23269481.13325      3077.28425        30.10025
G08  20028115.48323       729.25023        20.60023
G09  22263051.76925     -1006.43525        31.40025
G16  21782327.36825     -1765.69225        30.50025
G27  20258368.08326     -1528.12326        36.00026
J02  39347398.92223         2.90023        20.50023
R16  20597779.61325      1629.58725        32.50025
R17  20876409.72126     -2343.50126        36.30026
C44  22609736.86425     -1577.60325        31.60025
C41  26532878.82923     -1504.10023        22.70023
C25  22647010.96025      1798.98325        33.10025
C09  36299233.32325       484.05125        34.60025
E27  25748382.52524      1249.95024        26.10024
E29  26596864.43323       940.45023        23.00023
E30  24244556.10225      -195.11225        31.90025
