     4.01           OBSERVATION DATA    M                   RINEX VERSION / TYPE
GnssLogger          Xiaomi 14           20241214 074649 UTC PGM / RUN BY / DATE
Google GnssLogger                                           MARKER NAME
Unknown                                                     MARKER NUMBER
Unknown             Unknown                                 OBSERVER / AGENCY
Unknown             GnssLogger          v3.1.0.3            REC # / TYPE / VERS
Unknown             Unknown                                 ANT # / TYPE
 -2854035.9317  4667264.8389  3268186.2469                  APPROX POSITION XYZ
        0.0000        0.0000        0.0000                  ANTENNA: DELTA H/E/N
G    3 C1C D1C S1C                                          SYS / # / OBS TYPES
R    3 C1C D1C S1C                                          SYS / # / OBS TYPES
J    3 C1C D1C S1C                                          SYS / # / OBS TYPES
C    3 C2I D2I S2I                                          SYS / # / OBS TYPES
E    3 C1C D1C S1C                                          SYS / # / OBS TYPES
  2024    12    14    07    46   49.0000000     GPS         TIME OF FIRST OBS
 7 R04  6 R05  1 R14 -7 R15  0 R17  4 R18 -3 R24  2         GLONASS SLOT / FRQ #
Xiaomi 22101320I (Android 14) HW Year: 2018 HW Model:       COMMENT
qcom;MPSS.HI.4.3.c2-00125-LC_ALL_PACK-1.48771.36;           COMMENT
                                                            END OF HEADER
> 2024 12 14 07 46 49.4284017  0 46                      
G04  21764861.76826     -2019.93026        36.30026
G07  23724660.22827      3137.52427        45.00027
G08  20160027.47226      1146.44226        40.30026
G09  22139244.68826      -619.64326        38.50026
G16  21542689.77525     -1684.71125        31.20025
G26  23379932.47824     -2222.00024        25.50024
G27  20070169.47926     -1148.32326        38.30026
G31  23600050.89325     -3039.33625        34.90025
J02  39343162.56425       -70.78525        32.90025
J03  37054627.28426        19.64226        36.60026
J04  36875182.01124      -311.55024        25.60024
R14  20697817.36825      -716.42225        30.10025
R18  22901880.72623      4484.45023        23.40023
R15  20768010.47425      1655.12825        32.20025
R05  22277165.10826     -2101.31226        40.30026
R24  20738164.93625     -1860.04125        30.80025
R17  19957984.74324      2400.40024        28.70024
R04  23474677.98725     -3688.08025        33.90025
C60  38502794.53825       -27.25025        35.00025
C59  37317839.06626       -36.10026        38.90026
C44  22402871.68326     -1233.91126        39.00026
C43  25485850.38125      3322.08725        32.90025
C41  26335188.19726     -1290.39026        39.20026
C35  26076006.22524     -2969.15024        24.60024
C34  22120702.52524      1943.60024        26.50024
C33  26401652.78525     -2362.63325        33.00025
C26  25278983.99225     -2107.41625        33.70025
C25  22915678.07526      1875.73026        36.20026
C24  21893862.16326      -401.46126        35.50026
C14  26901978.51625     -2333.46025        30.60025
C12  22015951.14325       364.38825        34.00025
C11  23732541.77225      3005.82225        30.10025
C10  37616304.64326       228.98426        38.70026
C09  36389080.23227       545.41727        44.80027
C07  36632173.54226       172.52426        40.30026
C06  35551580.32126       102.65826        39.90026
C03  36831885.68526        -5.60026        36.00026
C02  37971771.55825       -65.75025        34.50025
E02  24018355.20725      -512.23525        35.40025
E03  27071655.05224     -2960.72024        28.50024
E07  26050177.30627       719.96027        42.50027
E08  24928570.07827     -1777.61327        42.80027
E25  26963077.71824     -1595.55924        25.50024
E30  25422157.07527      1056.41727        41.70027
E34  26454731.93925      2819.24525        31.10025
E36  25545375.37325      1175.48525        31.00025
> 2024 12 14 07 46 50.4284017  0 49                      
G02  24821470.47023      3562.90023        19.90023
G04  21765251.54626     -2022.54226        39.80026
G07  23724066.68627      3135.34827        45.30027
G08  20159809.27126      1143.75226        36.00026
G09  22139366.15226      -622.31326        38.30026
G16  21543033.38425     -1687.59025        30.50025
G26  23380338.74424     -2222.40024        28.00024
G27  20070385.97726     -1151.18726        40.10026
G31  23600634.63725     -3041.99525        32.30025
J02  39343175.20325       -72.96025        31.70025
J03  37054624.63326        17.32326        37.40026
J04  36875222.53123      -307.50023        23.30023
R14  20697956.51925      -718.82925        31.00025
R18  22901055.14624      4476.35024        25.60024
R15  20767727.51825      1652.67525        35.30025
R05  22277545.29226     -2103.97026        39.90026
R24  20738515.14125     -1863.06925        33.30025
R17  19957577.37324      2398.90024        27.30024
R04  23475381.34825     -3690.16525        34.10025
C60  38502808.67626       -28.35826        37.10026
C59  37317848.10726       -39.03126        38.60026
C44  22403111.56526     -1236.63426        37.70026
C43  25485208.87325      3320.07325        35.20025
C41  26335434.97426     -1292.68726        38.90026
C35  26076548.59725     -2971.81225        30.00025
C34  22120320.03725      1941.05525        30.30025
C33  26402105.81925     -2364.66625        32.60025
C26  25279382.16425     -2109.80825        31.20025
C25  22915317.17226      1873.39226        39.60026
C24  21893931.76325      -404.05325        34.70025
C14  26902432.74925     -2335.34525        32.80025
C12  22015884.63625       361.60625        34.00025
C11  23731956.92424      3003.20024        28.10024
C10  37616264.81826       226.94026        39.10026
C09  36388976.55227       543.17627        45.00027
C07  36632139.71326       170.46226        40.50026
C06  35551558.48426       100.31026        39.00026
C05  40034298.74826       -38.25026        40.50026
C04  38498979.42724        62.85024        28.70024
C03  36831889.62926        -7.15026        35.60026
C02  37971785.69626       -64.00026        36.20026
E02  24018459.28326      -514.52926        35.50026
E03  27072211.21424     -2962.99724        27.50024
E07  26050044.24627       717.41527        42.30027
E08  24928911.29027     -1780.05927        43.80027
E25  26963368.86423     -1601.65023        22.60023
E30  25421958.36127      1054.24527        41.50027
E34  26454202.85325      2816.82225        33.80025
E36  25545151.17624      1165.55024        26.00024
> 2024 12 14 07 46 51.4284017  0 48                      
G02  24820783.32624      3566.40024        26.00024
G04  21765637.05926     -2024.03726        39.90026
G07  23723467.08227      3134.12727        45.60027
G08  20159603.59325      1141.98625        31.80025
G09  22139489.64726      -624.02726        39.70026
G16  21543349.34624     -1689.45024        24.00024
G27  20070609.90226     -1152.76426        38.00026
G31  23601209.01925     -3043.03525        34.50025
J02  39343175.48324       -73.79824        29.30024
J03  37054621.61626        16.23326        36.40026
J04  36875296.56024      -318.45024        23.50024
R14  20698111.49225      -720.10025        29.60025
R18  22900210.61023      4477.40023        22.20023
R15  20767400.72425      1651.57425        34.50025
R05  22277949.99226     -2105.74326        40.20026
R24  20738902.75325     -1865.00325        30.40025
R17  19957077.29924      2398.60024        27.60024
R04  23476071.15025     -3691.24325        33.60025
C60  38502813.15326       -30.85626        37.20026
C59  37317852.58526       -40.42626        36.60026
C44  22403342.68525     -1238.24825        35.30025
C43  25484569.99625      3318.95325        34.50025
C41  26335683.48226     -1294.25726        38.00026
C35  26077121.78124     -2971.70024        25.40024
C34  22119961.16625      1939.64625        33.50025
C33  26402557.88625     -2365.75425        33.60025
C26  25279798.25625     -2111.06825        32.60025
C25  22914956.50226      1872.24826        39.10026
C24  21894006.99125      -405.22325        34.00025
C14  26902872.52525     -2336.03625        31.70025
C12  22015813.26624       359.00024        29.00024
C11  23731373.80824      3002.30024        26.70024
C10  37616219.82926       225.75126        37.60026
C09  36388871.90427       542.03027        43.80027
C07  36632105.21826       169.27926        38.20026
C06  35551536.87926        99.19726        36.80026
C05  40034308.02226       -39.15026        40.70026
C04  38498975.81024        49.15024        28.30024
C03  36831885.11325       -21.20025        34.40025
C02  37971799.76626       -38.80026        35.50026
C01  37571396.95924       -29.35024        27.70024
E02  24018555.79625      -515.64525        34.90025
E03  27072776.90324     -2963.89924        27.50024
E07  26049907.22126       715.84526        40.70026
E08  24929248.23727     -1781.47727        43.70027
E30  25421754.78226      1053.08026        40.80026
E34  26453669.50226      2815.94026        35.90026
E36  25544929.31024      1171.10024        24.70024
> 2024 12 14 07 46 52.4284017  0 47                      
G02  24820129.24523      3566.45023        22.50023
G04  21766027.45526     -2022.61926        39.40026
G07  23722869.96127      3135.94927        44.50027
G08  20159390.20725      1143.69625        34.00025
G09  22139607.53126      -622.69826        40.20026
G16  21543659.69724     -1691.90024        23.60024
G27  20070827.31826     -1151.49026        37.20026
G31  23601796.67926     -3041.48026        36.00026
J02  39343198.03325       -71.96725        32.10025
J03  37054614.18726        18.16026        35.80026
J04  36875366.77724      -311.25024        24.80024
R14  20698261.75424      -717.60024        27.50024
R18  22899422.52223      4475.20023        22.70023
R15  20767093.20325      1653.18225        33.70025
R05  22278337.39126     -2104.26526        41.20026
R24  20739219.70024     -1863.84724        29.00024
R17  19956633.37324      2395.15024        25.70024
R04  23476763.43725     -3689.13125        34.40025
C60  38502816.21826       -28.82526        36.70026
C59  37317858.04726       -41.10026        37.30026
C44  22403580.78625     -1236.75625        34.60025
C43  25483933.90225      3320.80325        33.90025
C41  26335932.67626     -1292.51326        38.80026
C35  26077718.43424     -2970.90024        26.00024
C34  22119594.88625      1941.24925        34.90025
C33  26403015.13625     -2363.68925        33.90025
C26  25280197.94625     -2109.26025        31.30025
C25  22914597.71727      1873.98827        42.00027
C24  21894091.29926      -403.62726        38.90026
C14  26903323.18025     -2333.90425        31.30025
C12  22015736.58525       361.38925        29.70025
C11  23730797.97325      3003.53825        30.30025
C10  37616176.72525       227.67725        35.20025
C09  36388767.34327       543.86827        44.20027
C07  36632075.00526       171.20526        38.90026
C06  35551517.75926       100.98526        37.70026
C05  40034312.88526       -38.15026        41.00026
C04  38498995.66325        -2.45025        29.80025
C03  36831902.56725       -22.50025        32.70025
C02  37971808.52725       -51.95025        34.50025
E02  24018649.99725      -513.81425        32.80025
E03  27073336.38224     -2961.49924        28.50024
E07  26049770.28227       717.23627        41.90027
E08  24929587.06927     -1779.95027        42.80027
E30  25421554.28726      1054.85026        40.40026
E34  26453129.94225      2817.60225        34.90025
E36  25544709.32825      1172.88525        31.20025
> 2024 12 14 07 46 53.4284017  0 45                      
G02  24819450.39424      3566.30024        24.20024
G04  21766416.46526     -2022.23326        38.60026
G07  23722273.85327      3136.83027        44.20027
G08  20159168.84026      1143.77626        35.60026
G09  22139724.62926      -622.45926        37.60026
G26  23381626.27923     -2221.45023        20.90023
G27  20071052.94126     -1151.07326        38.60026
G31  23602387.14926     -3040.83226        41.30026
J02  39343223.99425       -70.95925        33.50025
J03  37054605.97225        18.79625        35.00025
J04  36875396.33624      -314.85024        28.00024
R14  20698366.56124      -717.94224        29.20024
R15  20766779.79924      1653.10024        27.60024
R05  22278734.19526     -2104.03226        41.20026
R24  20739575.73224     -1864.25024        28.30024
R17  19956184.16324      2397.70024        28.60024
R04  23477446.24425     -3688.28725        32.70025
C60  38502819.69426       -21.25026        36.30026
C59  37317867.81926       -37.68326        37.20026
C44  22403814.80325     -1236.39325        32.80025
C43  25483292.22625      3321.43425        31.40025
C41  26336177.18626     -1292.01826        37.50026
C35  26078259.73824     -2972.15024        25.60024
C34  22119224.52125      1941.51725        34.10025
C33  26403463.50425     -2362.89025        33.80025
C26  25280601.04625     -2108.68125        35.30025
C25  22914239.94327      1874.88327        41.60027
C24  21894167.62526      -402.96926        39.60026
C14  26903773.94725     -2332.85625        30.40025
C11  23730207.26124      3005.30024        27.60024
C10  37616127.43925       228.33025        33.90025
C09  36388663.49427       544.67027        43.60027
C07  36632040.70826       171.88526        38.90026
C06  35551494.25425       101.75825        35.40025
C05  40034322.05726       -41.70026        39.30026
C04  38498990.44525         2.50025        30.90025
C03  36831892.25325         3.05025        33.10025
C02  37971825.19425       -52.70025        33.90025
E02  24018733.51824      -512.97724        28.30024
E03  27073899.87124     -2960.80524        29.40024
E07  26049632.85626       717.77326        41.10026
E08  24929925.71327     -1779.41327        42.80027
E30  25421354.80426      1055.83126        39.80026
E34  26452600.38825      2818.46025        34.90025
E36  25544485.26325      1173.24725        34.10025
> 2024 12 14 07 46 54.4284017  0 49                      
G02  24818761.88624      3571.60024        24.60024
G04  21766798.21626     -2020.03126        35.60026
G07  23721677.68127      3139.58327        43.90027
G08  20158942.61126      1146.27826        38.00026
G09  22139841.66326      -620.29826        39.10026
G16  21544321.33424     -1680.30024        26.10024
G26  23382056.89623     -2220.65023        23.00023
G27  20071272.50426     -1148.55126        37.80026
G31  23602964.96426     -3038.07126        40.50026
J02  39343233.40325       -67.85225        33.80025
J03  37054598.59225        21.76725        34.90025
J04  36875461.20624      -308.40024        25.80024
R14  20698503.08124      -715.45624        29.40024
R18  22897657.33923      4481.20023        22.60023
R15  20766473.22725      1656.48825        30.40025
R05  22279126.13927     -2101.74027        41.60027
R24  20739917.91125     -1861.68125        32.00025
R17  19955742.98425      2399.57425        31.40025
R04  23478126.88825     -3685.50425        33.30025
C60  38502827.30425       -30.05025        34.90025
C59  37317874.83026       -34.80326        38.20026
C44  22404055.95225     -1234.02325        33.40025
C43  25482660.97826      3324.20726        35.60026
C41  26336430.32626     -1289.54826        37.70026
C35  26078837.25424     -2969.85024        23.60024
C34  22118854.39325      1943.81625        33.80025
C33  26403915.40725     -2360.00325        32.80025
C26  25281009.47825     -2105.76525        31.50025
C25  22913876.41026      1877.60126        40.50026
C24  21894244.78726      -400.28026        36.90026
C14  26904229.44625     -2330.00425        30.50025
C12  22015611.56624       363.80024        26.20024
C11  23729641.96825      3006.79425        29.70025
C10  37616085.28326       231.16326        35.60026
C09  36388558.08227       547.45527        44.60027
C07  36632006.94626       174.59426        38.20026
C06  35551479.68026       104.53126        37.90026
C05  40034328.16826       -39.30026        39.20026
C04  38498968.37625        27.60025        30.60025
C03  36831895.96625       -16.95025        33.30025
C02  37971821.71225       -96.40025        32.10025
C01  37571377.83324         4.75024        26.10024
E02  24018848.15425      -509.95725        32.70025
E03  27074470.49124     -2958.14824        27.30024
E07  26049497.76527       720.11327        41.90027
E08  24930265.49327     -1777.05527        43.00027
E30  25421154.35826      1058.53726        41.20026
E34  26452062.37525      2821.26725        35.00025
E36  25544259.93425      1175.55025        34.90025
> 2024 12 14 07 46 55.4284017  0 48                      
G02  24818068.74724      3573.45024        23.60024
G04  21767164.54424     -2015.70024        27.60024
G07  23721079.57727      3141.64327        43.00027
G08  20158722.24627      1147.69527        42.60027
G09  22139958.86426      -618.54726        39.20026
G16  21544625.60525     -1681.67725        32.10025
G26  23382486.78023     -2221.60023        22.00023
G27  20071494.33325     -1147.30425        35.30025
G31  23603549.24226     -3036.37126        40.30026
J02  39343256.46925       -65.74525        33.70025
J03  37054602.77125        23.98425        30.40025
J04  36875520.24724      -311.45024        26.50024
R14  20698667.35024      -713.85024        27.20024
R18  22896842.48523      4486.50023        22.00023
R15  20766159.62625      1659.01925        33.40025
R05  22279523.64627     -2099.99827        42.50027
R24  20740242.56825     -1860.37525        30.60025
R17  19955264.49725      2400.95125        33.70025
R04  23478819.69025     -3683.07925        33.00025
C60  38502831.78326       -25.88826        38.50026
C59  37317877.51026       -32.60926        38.20026
C44  22404294.86825     -1232.54925        35.40025
C43  25482012.50925      3326.26925        34.60025
C41  26336677.33726     -1287.78426        37.10026
C35  26079387.05523     -2972.25023        23.00023
C34  22118500.91924      1947.45024        29.10024
C33  26404368.67525     -2357.78825        31.40025
C26  25281404.58725     -2104.09525        31.10025
C25  22913515.44226      1879.43126        35.80026
C24  21894323.31425      -398.60625        33.70025
C14  26904667.42525     -2327.35425        30.20025
C12  22015530.00526       365.57426        35.90026
C11  23729063.35026      3008.72626        35.50026
C10  37616037.29826       233.37826        37.40026
C09  36388452.83727       549.37127        44.10027
C07  36631971.55326       176.81426        36.30026
C06  35551464.07226       106.43926        40.10026
C05  40034331.14826       -36.50026        39.50026
C04  38498965.06025        27.70025        30.10025
C03  36831897.74726        -4.63326        36.40026
E02  24018947.66725      -508.05025        34.80025
E03  27075033.48324     -2956.16024        25.20024
E07  26049360.74227       721.84327        42.10027
E08  24930600.94326     -1775.01326        41.20026
E25  26964875.64423     -1588.80023        19.40023
E30  25420954.67827      1060.64727        42.80027
E34  26451526.62825      2823.37725        33.40025
E36  25544038.66926      1177.43326        35.50026
> 2024 12 14 07 46 56.4284017  0 50                      
G02  24817414.45925      3572.73125        30.50025
G04  21767568.22426     -2019.40026        37.40026
G07  23720478.35227      3141.28427        43.60027
G08  20158497.86026      1146.20726        41.40026
G09  22140071.14626      -620.08726        36.80026
G16  21544962.43125     -1681.29325        29.90025
G26  23382898.55424     -2217.00024        28.30024
G27  20071701.64826     -1148.24926        41.10026
G31  23604126.50126     -3036.10226        38.30026
J02  39343258.72726       -66.07926        36.00026
J03  37054602.63025        22.97325        34.10025
J04  36875589.05924      -305.30024        27.80024
R14  20698767.63924      -712.95024        26.30024
R18  22896055.68824      4482.20024        27.30024
R15  20765844.40326      1658.67626        37.30026
R05  22279914.43427     -2101.13927        42.10027
R24  20740565.30323     -1863.00023        21.50023
R17  19954833.85425      2400.71825        31.50025
R04  23479493.18325     -3683.63625        32.00025
C60  38502837.33826       -23.73126        39.00026
C59  37317885.76326       -33.41226        37.70026
C44  22404536.66025     -1233.50425        32.50025
C43  25481376.80825      3325.84325        31.50025
C41  26336919.72826     -1288.73326        37.10026
C35  26079952.92224     -2965.60024        28.40024
C34  22118093.36024      1945.10024        27.70024
C33  26404820.02125     -2358.00425        33.40025
C26  25281812.76325     -2104.30925        30.20025
C25  22913155.25127      1879.15927        44.50027
C24  21894399.62026      -399.11226        40.50026
C14  26905118.77224     -2327.55724        29.30024
C12  22015457.01425       364.51325        32.40025
C11  23728483.41125      3008.88925        32.30025
C10  37615992.78825       232.35125        34.00025
C09  36388347.16927       548.71927        41.80027
C07  36631941.13325       175.83925        34.30025
C06  35551439.94826       105.62426        39.00026
C05  40034332.80626       -35.05026        38.50026
C04  38498973.61324         1.30024        28.00024
C03  36831899.70425        -4.60025        31.90025
C02  37971846.13625       -35.25025        31.70025
C01  37571389.06625        -9.70025        33.50025
E02  24019035.66625      -509.00025        32.90025
E03  27075584.96024     -2955.43824        25.40024
E07  26049222.39626       720.96726        40.80026
E08  24930939.26826     -1775.79726        39.20026
E25  26965237.05323     -1580.90023        23.00023
E30  25420752.47726      1059.93526        40.30026
E34  26450980.56525      2823.51425        33.70025
E36  25543816.98125      1176.62025        34.90025
> 2024 12 14 07 46 57.4284017  0 49                      
G02  24816712.18124      3570.93024        29.00024
G04  21767949.39626     -2020.54726        39.40026
G07  23719884.89927      3140.20327        42.80027
G08  20158279.14827      1145.46027        42.50027
G09  22140186.70126      -620.86226        38.70026
G16  21545281.54625     -1682.81825        34.00025
G26  23383318.39925     -2217.00825        30.10025
G27  20071923.63027     -1149.60527        42.60027
G31  23604703.13825     -3037.83225        35.20025
J02  39343281.94626       -66.74626        36.20026
J03  37054608.16226        22.11226        37.20026
J04  36875643.75724      -310.00024        25.80024
R14  20698934.16025      -715.21425        30.00025
R18  22895195.12024      4481.15024        24.70024
R15  20765535.45325      1657.32425        35.30025
R05  22280303.40127     -2102.63827        41.80027
R24  20740997.14024     -1863.40024        28.00024
R17  19954386.10025      2398.23525        33.70025
R04  23480200.82925     -3684.64125        29.90025
C60  38502840.47226       -24.42426        40.30026
C59  37317887.39825       -40.80025        35.30025
C44  22404785.32426     -1234.73026        37.60026
C43  25480734.48824      3326.55024        27.40024
C41  26337168.39226     -1289.70426        39.40026
C35  26080517.26725     -2968.14325        31.80025
C34  22117733.74525      1943.61525        35.40025
C33  26405276.44125     -2359.42325        31.20025
C26  25282211.62324     -2104.20024        28.60024
C25  22912795.93527      1877.92327        43.20027
C24  21894478.00226      -400.55226        38.60026
C14  26905568.59625     -2327.48925        30.40025
C12  22015399.29024       362.45024        28.10024
C11  23727910.04325      3006.05325        31.70025
C10  37615949.75426       231.89726        37.50026
C09  36388244.77627       548.16327        42.30027
C07  36631906.49326       175.57926        36.30026
C06  35551417.60026       104.95126        38.20026
C05  40034345.53326       -33.15026        36.60026
C04  38498966.25424        15.35024        28.30024
C02  37971862.16125       -57.30025        34.50025
C01  37571395.79826       -12.25026        35.60026
E02  24019138.03125      -509.55025        35.30025
E03  27076147.20724     -2955.33724        23.70024
E07  26049089.72426       719.46026        37.40026
E08  24931278.16927     -1777.20427        42.50027
E25  26965504.90324     -1592.51624        25.10024
E30  25420552.65126      1059.42926        38.60026
E34  26450449.76825      2821.30325        34.40025
E36  25543589.87425      1175.31025        31.40025
> 2024 12 14 07 46 58.4284017  0 47                      
G02  24816039.71924      3572.60024        23.70024
G04  21768309.71925     -2021.15125        30.50025
G07  23719283.18827      3140.05427        42.40027
G08  20158061.77027      1144.49327        42.10027
G09  22140315.88426      -621.93226        37.10026
G16  21545584.60825     -1683.44525        29.90025
G26  23383742.87824     -2213.75024        25.30024
G27  20072145.74927     -1150.28127        42.80027
G31  23605281.41026     -3038.44526        39.20026
J02  39343293.61125       -66.96325        32.20025
J03  37054594.64425        22.10525        31.80025
J04  36875734.86624      -312.20024        26.80024
R18  22894370.96324      4479.90024        28.20024
R15  20765237.43125      1657.23425        32.40025
R05  22280698.79926     -2103.41026        40.80026
R24  20741302.30124     -1861.40024        25.10024
R17  19953936.98325      2397.33425        30.00025
R04  23480866.64025     -3684.59525        32.90025
C60  38502848.83926       -24.37226        40.00026
C59  37317901.76025       -32.75025        35.30025
C44  22405015.83626     -1235.36026        38.60026
C43  25480088.40825      3324.55025        31.60025
C41  26337419.59026     -1290.15926        37.80026
C39  35823935.81225      -258.32125        33.90025
C35  26081089.54425     -2967.90325        32.70025
C34  22117349.38425      1942.74125        34.20025
C33  26405713.81124     -2362.30024        27.10024
C26  25282626.80824     -2105.75024        28.70024
C25  22912434.95824      1877.65024        27.60024
C24  21894557.12026      -400.75526        37.10026
C14  26906018.25725     -2328.39125        33.40025
C12  22015315.62023       361.45023        22.50023
C11  23727333.21526      3006.44626        36.90026
C10  37615906.55626       231.60926        38.60026
C09  36388138.62227       547.74327        44.40027
C07  36631872.88826       175.04526        36.90026
C06  35551402.58226       104.60526        39.80026
C05  40034348.20426       -14.30026        36.70026
C03  36831902.21125       -15.35025        33.50025
C02  37971869.02825       -47.50025        33.00025
E03  27076725.17923     -2954.50023        22.70023
E07  26048952.09226       718.98726        39.40026
E08  24931618.40627     -1777.62527        41.70027
E11  27288176.59524     -1086.25924        24.10024
E30  25420352.36227      1059.00227        42.10027
E34  26449917.01025      2821.74325        35.30025
E36  25543366.80125      1174.65125        34.40025
> 2024 12 14 07 46 59.4284017  0 48                      
G04  21768704.58125     -2020.19025        32.90025
G07  23718686.93727      3141.31527        43.30027
G08  20157847.75427      1145.23427        42.00027
G09  22140438.53526      -621.21126        37.90026
G16  21545912.61725     -1682.25825        29.90025
G26  23384154.82824     -2215.90024        27.60024
G27  20072361.33527     -1149.58527        43.90027
G31  23605854.64926     -3037.42326        39.60026
J02  39343309.23625       -65.54325        33.20025
J03  37054588.68425        23.32425        34.20025
J04  36875795.16024      -308.85024        25.50024
R14  20699160.51123      -717.15023        19.60023
R18  22893480.31524      4483.90024        27.00024
R15  20764926.88225      1658.46925        33.70025
R05  22281087.66626     -2102.67426        41.20026
R24  20741660.58924     -1863.60024        26.20024
R17  19953478.33625      2397.78825        30.90025
R04  23481563.39425     -3683.23125        33.20025
C60  38502850.67326       -23.23726        40.70026
C59  37317910.19025       -40.70025        34.10025
C44  22405254.20726     -1234.56226        39.60026
C43  25479466.07525      3325.80425        33.50025
C41  26337666.65526     -1289.29026        37.40026
C39  35823986.81225      -257.11625        35.40025
C35  26081662.48325     -2966.77225        31.10025
C34  22116983.07326      1943.67726        36.90026
C33  26406178.52524     -2360.00024        26.00024
C26  25283026.76725     -2105.03925        30.10025
C25  22912089.33324      1880.90024        25.80024
C24  21894630.00526      -399.68826        39.30026
C16  35785498.25726       103.03226        37.50026
C14  26906459.88725     -2326.82625        33.30025
C11  23726761.84626      3007.54026        36.70026
C10  37615860.72326       232.73726        37.90026
C09  36388032.83127       548.96127        44.50027
C07  36631839.04726       176.23026        37.50026
C06  35551381.03326       105.84326        39.10026
C05  40034353.93526       -35.65026        36.80026
C04  38498965.96224         2.40024        26.90024
C03  36831912.14025       -13.15025        33.70025
C02  37971879.25725       -58.60025        33.90025
C01  37571390.70925        14.00025        30.10025
E02  24019364.98224      -509.65024        24.80024
E07  26048816.32226       719.89826        39.00026
E08  24931954.80927     -1776.66927        42.90027
E30  25420150.03826      1060.29226        41.00026
E34  26449382.21625      2822.92625        35.40025
E36  25543142.89225      1175.68225        34.40025
> 2024 12 14 07 47 00.4284017  0 50                      
G04  21769092.83725     -2019.68925        32.50025
G07  23718088.57527      3142.18727        42.50027
G08  20157629.83027      1145.66127        43.20027
G09  22140545.28626      -620.76826        37.10026
G16  21546249.30825     -1681.29525        30.50025
G26  23384589.25224     -2214.85024        27.70024
G27  20072579.90927     -1149.12927        43.50027
G31  23606430.57526     -3036.67526        38.40026
J02  39343323.35125       -64.41125        33.00025
J03  37054593.20525        24.29625        30.90025
J04  36875860.53923      -306.30023        23.40023
R14  20699322.72423      -714.15023        22.20023
R18  22892652.01324      4481.75024        28.70024
R15  20764621.41825      1659.38725        34.70025
R05  22281472.92426     -2102.16326        39.20026
R24  20742003.57624     -1862.25024        28.90024
R17  19953051.45625      2398.09725        32.80025
R04  23482256.23925     -3682.26625        33.00025
C60  38502854.29526       -22.13726        39.90026
C59  37317915.61125        -7.80025        32.20025
C44  22405492.26726     -1234.12426        39.70026
C43  25478830.83925      3326.67525        35.30025
C41  26337910.41126     -1288.51626        36.40026
C39  35824036.00225      -256.24725        34.10025
C35  26082221.92024     -2966.60024        28.90024
C34  22116603.26126      1944.26326        36.70026
C26  25283429.41324     -2103.85024        28.60024
C25  22911748.19324      1878.40024        26.50024
C24  21894710.37426      -399.00526        37.50026
C16  35785479.69426       103.91926        37.90026
C14  26906911.99925     -2325.64725        32.30025
C12  22015190.06824       367.15024        23.70024
C11  23726185.67026      3008.28826        36.00026
C10  37615815.18026       233.64826        38.30026
C09  36387926.42927       549.85727        43.30027
C07  36631806.99426       177.13326        36.70026
C06  35551362.17126       106.69826        38.80026
C05  40034360.55525       -60.90025        35.40025
C04  38498973.18225        14.80025        31.50025
C03  36831903.47025         1.50025        33.40025
C02  37971888.27525       -48.95025        33.50025
C01  37571390.73425        -8.45025        32.80025
E02  24019436.65724      -507.17624        27.30024
E03  27077832.97323     -2959.10023        22.30023
E07  26048680.24026       720.40826        39.50026
E08  24932292.10027     -1776.00227        41.80027
E25  26966390.52323     -1592.00023        20.10023
E30  25419952.20026      1061.20226        41.00026
E34  26448848.31025      2823.87525        31.90025
E36  25542915.37425      1176.18825        32.00025
> 2024 12 14 07 47 01.4284017  0 49                      
G04  21769481.57325     -2019.81425        33.10025
G07  23717494.29127      3142.54627        43.60027
G08  20157413.28427      1145.50327        44.00027
G09  22140665.40726      -621.10526        38.90026
G16  21546558.59925     -1680.82225        30.60025
G26  23385001.07224     -2213.94424        29.00024
G27  20072797.46327     -1149.22927        44.10027
G31  23607007.88026     -3036.37126        39.00026
J02  39343332.54925       -63.99325        33.90025
J03  37054577.22125        24.64125        32.60025
J04  36875905.41323      -305.50023        23.10023
R18  22891847.87524      4485.30024        28.60024
R15  20764307.74025      1659.53525        33.50025
R05  22281869.15426     -2102.42526        39.70026
R24  20742323.06024     -1867.05024        28.20024
R17  19952607.36825      2397.78625        34.00025
R04  23482972.04825     -3681.67525        33.80025
C60  38502861.39526       -21.81326        41.10026
C59  37317920.61225       -27.80025        32.40025
C44  22405726.90926     -1234.13626        40.30026
C43  25478188.58826      3326.85626        38.00026
C41  26338160.04226     -1288.54126        37.80026
C39  35824083.87426      -256.01426        35.70026
C35  26082808.21924     -2966.00024        29.20024
C34  22116234.42126      1944.09626        37.80026
C33  26407087.12524     -2358.70024        25.20024
C26  25283822.94524     -2104.80024        29.20024
C25  22911388.34724      1881.50024        26.10024
C24  21894785.82626      -398.81826        37.80026
C16  35785460.41226       104.24926        38.70026
C14  26907357.09525     -2324.99325        33.80025
C12  22015130.61324       364.10024        26.50024
C11  23725609.37426      3008.43826        36.40026
C10  37615773.41326       233.99726        38.90026
C09  36387822.90527       550.20727        44.20027
C07  36631768.82526       177.46226        37.50026
C06  35551340.79026       106.92426        39.60026
C05  40034368.55426       -24.25026        36.70026
C04  38498970.98825        11.05025        31.80025
C03  36831902.77525        14.40025        32.50025
C02  37971897.47325       -57.00025        34.90025
C01  37571388.24025        -4.90025        32.90025
E02  24019542.38825      -507.10825        29.80025
E03  27078401.28424     -2954.61924        25.00024
E07  26048539.24326       720.30026        40.70026
E08  24932631.96927     -1776.02027        43.00027
E30  25419747.34626      1061.56226        41.00026
E34  26448316.68225      2824.32725        31.00025
E36  25542692.83325      1176.27025        31.50025
> 2024 12 14 07 47 02.4284017  0 52                      
G02  24813323.02123      3573.95023        20.30023
G04  21769870.75927     -2018.74427        42.40027
G07  23716896.86127      3144.67227        42.40027
G08  20157190.89427      1145.99727        42.30027
G09  22140780.88326      -620.19926        37.90026
G16  21546877.93425     -1680.23625        34.40025
G26  23385433.12824     -2210.05024        27.80024
G27  20073012.47026     -1148.77526        40.60026
G31  23607588.33426     -3035.95526        37.40026
J02  39343340.69926       -62.74226        38.20026
J03  37054573.08025        25.33925        35.20025
J04  36875924.35623      -304.20023        23.30023
R14  20699583.50325      -712.85025        31.30025
R18  22890993.22224      4484.84124        29.40024
R15  20763992.11425      1661.19725        35.10025
R05  22282272.13126     -2100.89126        36.10026
R24  20742699.65525     -1862.43225        33.30025
R17  19952157.43625      2398.42125        35.30025
R04  23483627.15025     -3680.18225        33.60025
C60  38502863.84927       -20.19527        44.30027
C59  37317922.16725       -53.05025        35.10025
C44  22405968.29825     -1232.60925        35.20025
C43  25477545.88926      3328.25326        36.80026
C41  26338407.72726     -1286.77326        40.00026
C39  35824132.79625      -255.42025        33.70025
C35  26083364.98925     -2964.05125        33.30025
C34  22115861.83426      1944.65126        40.50026
C33  26407534.47126     -2354.69126        36.20026
C26  25284237.91324     -2102.40024        28.30024
C25  22910989.37927      1882.52227        41.60027
C24  21894856.03326      -398.08726        36.50026
C16  35785439.48326       105.07426        38.00026
C14  26907800.54425     -2323.30025        34.60025
C12  22015044.92825       364.04325        34.10025
C11  23725025.13425      3009.70625        35.20025
C10  37615725.80226       235.13226        38.00026
C09  36387715.33627       551.36227        41.50027
C07  36631741.30026       179.03126        36.30026
C06  35551317.46226       107.95726        39.30026
C05  40034369.51026       -43.30026        37.70026
C04  38498960.55125        33.10025        32.80025
C03  36831898.33425         0.65025        34.50025
C02  37971914.91726       -44.25026        35.60026
C01  37571396.09125         5.30025        33.90025
E02  24019621.58926      -505.35226        39.00026
E03  27078967.34824     -2952.22724        27.00024
E07  26048404.09226       721.54526        36.40026
E08  24932968.99227     -1775.08027        42.00027
E25  26967009.55523     -1589.00023        22.90023
E30  25419544.74226      1063.28126        40.70026
E34  26447758.82426      2825.85626        36.40026
E36  25542475.23925      1177.50825        33.80025
> 2024 12 14 07 47 03.4284017  0 53                      
G02  24812643.51425      3573.46125        32.20025
G04  21770258.51426     -2020.10626        41.30026
G07  23716295.90026      3145.39326        39.80026
G08  20156973.36826      1144.24526        38.60026
G09  22140901.82327      -620.00127        41.80027
G16  21547194.03825     -1681.94425        33.30025
G26  23385841.56924     -2215.42324        28.70024
G27  20073235.33826     -1150.69826        39.10026
G31  23608169.45426     -3041.08926        38.90026
J02  39343346.51825       -64.43825        34.20025
J03  37054580.99724        19.40624        29.30024
J04  36875964.35125      -308.48325        32.30025
R14  20699715.53524      -714.00024        27.80024
R18  22890149.12926      4482.17026        37.30026
R15  20763671.15926      1661.33926        40.50026
R05  22282664.98226     -2101.25026        40.00026
R24  20743065.52425     -1866.38825        30.90025
R17  19951718.66225      2394.31525        33.50025
R04  23484310.50026     -3681.88026        38.90026
C60  38502865.47126       -23.40026        38.00026
C59  37317933.98225       -43.30025        31.90025
C44  22406213.35124     -1236.45024        29.20024
C43  25476902.95726      3325.57226        38.30026
C41  26338655.47826     -1286.16326        38.80026
C39  35824185.38226      -257.51326        37.40026
C35  26083929.92125     -2966.96225        30.90025
C34  22115489.31526      1941.53926        40.00026
C33  26407987.28126     -2355.52326        38.80026
C26  25284651.45025     -2105.93525        33.30025
C25  22910630.35127      1882.33427        44.50027
C24  21894935.60125      -399.77525        35.40025
C16  35785417.72126       103.56026        37.20026
C14  26908247.05826     -2325.52726        36.80026
C12  22014975.20026       360.32526        37.30026
C11  23724444.25927      3006.39027        41.50027
C10  37615678.55826       234.80526        36.50026
C09  36387610.53126       550.72726        41.20026
C07  36631703.34925       177.98825        35.20025
C06  35551301.69626       106.44626        35.80026
C05  40034376.52825        -6.45025        31.70025
C04  38498960.07425        13.50025        32.80025
C03  36831900.25625         4.25025        31.70025
C02  37971916.23925       -69.80025        34.20025
C01  37571395.61425        -8.60025        32.40025
E02  24019719.44425      -507.16025        30.60025
E03  27079520.28825     -2957.01625        35.10025
E07  26048274.40524       721.25024        28.20024
E08  24933308.77926     -1775.75026        40.30026
E11  27289218.21723     -1084.30023        19.70023
E25  26967322.96124     -1592.46024        26.20024
E30  25419341.30626      1064.28326        39.30026
E34  26447225.91625      2821.63625        30.00025
E36  25542249.01925      1172.07725        33.70025
> 2024 12 14 07 47 04.4284017  0 52                      
G02  24811961.68825      3571.28825        32.00025
G04  21770636.45426     -2021.44726        35.50026
G07  23715697.11626      3146.39026        38.90026
G08  20156752.62226      1143.33926        37.80026
G09  22141020.14226      -621.07626        37.70026
G16  21547512.91925     -1683.15325        30.10025
G26  23386258.78125     -2217.66225        32.90025
G27  20073454.08826     -1151.61026        38.80026
G31  23608742.85925     -3043.46425        33.30025
J02  39343354.51425       -63.43325        33.50025
J03  37054574.90325        20.08425        33.00025
J04  36876031.70625      -310.94225        33.50025
R14  20699839.55125      -716.60025        32.20025
R18  22889309.01327      4479.79927        41.80027
R15  20763367.07225      1660.42825        35.00025
R05  22283059.71025     -2101.78825        35.40025
R24  20743383.20625     -1868.10525        32.40025
R17  19951257.78325      2392.84325        34.80025
R04  23485000.52426     -3683.31026        38.20026
C60  38502875.86525       -32.35025        34.90025
C59  37317933.28426       -23.60026        35.50026
C44  22406445.89225     -1238.01525        30.30025
C43  25476266.39926      3324.41726        39.50026
C41  26338912.90225     -1288.65725        31.40025
C39  35824230.85326      -258.78326        39.20026
C35  26084519.21525     -2968.67425        29.90025
C34  22115115.07626      1940.29726        39.90026
C33  26408444.06625     -2356.93525        34.90025
C26  25285047.07826     -2110.16826        37.00026
C25  22910269.90226      1883.41026        40.90026
C24  21895011.05126      -401.48726        37.70026
C16  35785401.13426       102.45726        39.80026
C14  26908691.55225     -2327.09325        34.20025
C12  22014906.14926       358.69526        37.40026
C11  23723868.25926      3004.12226        39.10026
C10  37615638.88726       234.14326        38.30026
C09  36387505.20626       551.38926        39.40026
C07  36631669.37426       177.71426        40.60026
C06  35551277.91426       105.56026        39.00026
C05  40034385.42326       -24.65026        35.80026
C04  38498958.47725        47.35025        31.30025
C03  36831903.15626        -8.55026        37.30026
C02  37971936.52725       -46.75025        32.40025
E02  24019813.78026      -507.07226        35.70026
E03  27080082.60026     -2959.17326        38.50026
E07  26048125.60926       723.19926        40.40026
E08  24933644.14926     -1778.09526        37.00026
E11  27289431.87124     -1087.58724        23.80024
E25  26967615.16025     -1593.32325        30.00025
E30  25419137.64926      1063.92226        39.90026
E34  26446686.19224      2820.69624        28.40024
E36  25542022.87725      1170.18925        34.40025
> 2024 12 14 07 47 05.4284017  0 52                      
G02  24811270.54325      3568.10825        32.50025
G04  21771026.96026     -2025.13926        40.30026
G07  23715101.60526      3143.68126        38.00026
G08  20156539.94626      1139.92226        40.40026
G09  22141133.04126      -624.00126        40.40026
G16  21547827.87825     -1687.39425        35.10025
G26  23386675.37025     -2220.29225        34.50025
G27  20073674.91326     -1155.02626        40.50026
G31  23609323.43426     -3045.89926        37.30026
J02  39343368.48126       -67.30226        36.70026
J03  37054572.08225        16.92225        32.50025
J04  36876091.24225      -315.27025        30.30025
R14  20699964.14226      -718.80026        36.10026
R18  22888473.96826      4475.59326        37.40026
R15  20763040.47526      1659.78726        37.70026
R05  22283444.82126     -2105.32426        36.70026
R24  20743744.63326     -1870.91626        35.70026
R17  19950817.26526      2387.60426        38.80026
R04  23485697.71825     -3687.30125        33.10025
C60  38502879.93926       -24.65026        36.90026
C59  37317940.05625       -35.25025        35.00025
C44  22406673.01226     -1240.23226        38.20026
C43  25475625.32025      3321.19125        35.30025
C41  26339149.01526     -1289.47526        37.60026
C39  35824280.19526      -261.14426        38.60026
C35  26085078.50424     -2971.65024        27.60024
C34  22114748.30726      1935.88126        37.20026
C33  26408896.63025     -2360.52625        35.40025
C26  25285451.07525     -2112.41825        33.70025
C25  22909906.43027      1880.59127        43.30027
C24  21895088.87426      -404.23826        40.90026
C16  35785380.32526        99.54826        38.10026
C14  26909144.11625     -2329.00425        34.00025
C12  22014835.87526       355.30826        37.50026
C11  23723287.13925      3000.34325        35.40025
C10  37615595.29426       231.13726        37.20026
C09  36387396.25826       547.55426        38.50026
C07  36631637.47426       174.43726        37.20026
C06  35551255.30726       102.85626        37.60026
C05  40034387.09926        -1.85026        35.60026
C04  38498957.45525        27.80025        30.50025
C03  36831907.23026       -16.70026        36.40026
C02  37971937.30325       -62.05025        34.90025
C01  37571401.38925        -5.45025        30.00025
E02  24019907.79226      -509.34926        37.90026
E03  27080646.68726     -2963.30426        37.60026
E07  26047989.08126       718.47026        37.30026
E08  24933983.39126     -1780.81526        40.10026
E25  26967926.22225     -1596.29625        32.60025
E30  25418936.66526      1061.72426        37.60026
E34  26446148.24125      2814.99125        31.00025
E36  25541801.80725      1167.05125        35.10025
> 2024 12 14 07 47 06.4284017  0 52                      
G02  24810607.52124      3572.32224        29.20024
G04  21771409.01526     -2023.06926        36.80026
G07  23714501.54026      3146.14026        39.60026
G08  20156322.11626      1141.09426        41.20026
G09  22141255.47526      -621.67426        39.30026
G16  21548148.47526     -1684.63626        39.70026
G26  23387095.19826     -2220.64726        39.10026
G27  20073892.38127     -1154.23227        41.50027
G31  23609908.74826     -3045.22026        38.50026
J02  39343383.29026       -66.52626        39.20026
J03  37054577.29825        17.86025        31.50025
J04  36876151.01925      -312.40325        30.50025
R14  20700105.76327      -719.18627        42.30027
R18  22887651.75624      4479.10024        25.90024
R15  20762743.20026      1661.21526        39.50026
R05  22283847.86126     -2103.99226        38.50026
R24  20744080.22026     -1870.99626        40.00026
R17  19950376.09026      2388.22826        37.00026
R04  23486386.16125     -3682.70025        31.40025
C60  38502876.46126       -22.15526        38.60026
C59  37317952.46725       -27.75025        32.60025
C44  22406910.26627     -1240.37227        44.80027
C43  25475002.47025      3324.28325        30.00025
C41  26339397.36225     -1287.16425        33.60025
C39  35824330.68027      -260.54927        41.50027
C35  26085663.51924     -2968.70024        27.70024
C34  22114374.58526      1937.42526        35.70026
C33  26409347.03725     -2356.80325        34.20025
C26  25285858.01226     -2111.41826        35.50026
C25  22909544.40027      1882.28327        44.00027
C24  21895164.24127      -403.76127        45.90027
C16  35785361.85726       100.85326        41.10026
C14  26909598.12024     -2326.65024        26.00024
C12  22014767.94126       355.97726        40.30026
C11  23722717.05225      3003.12225        31.80025
C10  37615546.54726       233.33626        38.80026
C09  36387292.94926       549.34026        38.50026
C07  36631599.51926       176.36926        41.10026
C06  35551238.33726       104.14426        39.10026
C05  40034393.81325       -16.20025        34.90025
C04  38498957.87425         4.95025        35.20025
C02  37971949.41425       -63.75025        33.70025
C01  37571396.11125        19.65025        31.80025
E02  24020003.24526      -508.41126        40.70026
E03  27081212.21524     -2957.85024        26.40024
E07  26047851.59526       720.59226        39.10026
E08  24934321.37626     -1778.60626        38.00026
E11  27289842.28323     -1082.45023        22.00023
E25  26968224.63426     -1595.07026        38.20026
E30  25418733.22526      1064.17526        36.80026
E34  26445621.62525      2819.77525        30.20025
E36  25541579.18026      1167.42926        40.60026
> 2024 12 14 07 47 07.4284017  0 50                      
G02  24809943.40324      3572.10024        27.30024
G04  21771798.96626     -2025.14926        37.10026
G07  23713905.17426      3143.47226        40.20026
G08  20156105.28826      1139.32726        40.10026
G09  22141376.21325      -626.56625        35.30025
G16  21548470.07427     -1685.63027        43.10027
G26  23387518.42726     -2221.37026        37.30026
G27  20074112.05026     -1155.82026        40.80026
G31  23610487.26925     -3046.70025        31.60025
J02  39343397.00226       -67.20526        38.70026
J03  37054567.02624        18.60024        28.10024
J04  36876190.81324      -310.55024        27.00024
R14  20700232.49627      -720.16627        42.70027
R18  22886770.88724      4477.05024        27.10024
R15  20762431.93626      1658.74826        40.70026
R05  22284248.60525     -2106.68025        32.20025
R24  20744439.59227     -1872.65427        42.80027
R17  19949932.01825      2386.40425        31.50025
R04  23487092.69324     -3686.80024        24.50024
C60  38502883.27826       -23.63126        38.80026
C44  22407150.02227     -1241.58227        43.90027
C43  25474357.23825      3324.66925        31.20025
C41  26339647.31125     -1290.60725        32.20025
C39  35824380.06726      -261.21926        38.10026
C35  26086207.86325     -2970.47725        34.10025
C34  22114006.66125      1938.97025        31.40025
C33  26409811.03724     -2361.15024        26.40024
C26  25286265.65225     -2111.40925        32.90025
C25  22909183.97127      1879.72327        43.20027
C24  21895240.01027      -404.76727        43.00027
C16  35785338.39526        99.86626        40.40026
C14  26910048.03024     -2324.65024        23.90024
C12  22014699.21026       354.99926        38.30026
C11  23722139.27425      3002.60325        32.00025
C10  37615500.90026       231.55826        38.30026
C09  36387186.74426       548.58626        38.30026
C07  36631570.66026       175.07726        40.10026
C06  35551217.57326       102.96426        39.00026
C05  40034416.51925       -19.40025        29.60025
C04  38498957.79525       -36.80025        29.70025
C02  37971963.72625       -28.55025        32.80025
E02  24020102.39827      -509.84827        43.30027
E03  27081778.14424     -2958.77824        26.60024
E07  26047713.61226       718.58626        39.50026
E08  24934661.56226     -1780.57926        37.20026
E11  27290061.95224     -1082.24724        26.20024
E25  26968527.34625     -1596.45325        33.40025
E30  25418532.88526      1060.50326        38.80026
E34  26445084.61824      2826.08024        27.60024
E36  25541355.45726      1166.76226        35.70026
> 2024 12 14 07 47 08.4284017  0 48                      
G02  24809245.14124      3566.05024        23.80024
G04  21772179.65825     -2027.31225        33.60025
G07  23713306.14427      3140.00527        41.90027
G08  20155887.59426      1136.37126        36.90026
G09  22141493.98726      -628.39326        38.10026
G16  21548791.40626     -1687.48126        39.40026
G26  23387936.29325     -2222.74825        33.30025
G27  20074331.45426     -1158.70826        41.10026
G31  23611073.61824     -3044.75024        28.50024
J02  39343415.54425       -69.66025        35.30025
J03  37054572.97724        17.10024        25.30024
J04  36876249.52823      -315.10023        21.70023
R14  20700385.94526      -722.44426        36.90026
R18  22885990.18324      4481.15024        24.00024
R15  20762119.20826      1656.00726        40.20026
R05  22284624.80025     -2108.75925        34.10025
R24  20744792.70326     -1875.00726        38.30026
R17  19949482.28524      2385.30024        27.40024
R04  23487758.48724     -3685.75024        24.70024
C60  38502887.73025       -44.80025        33.60025
C44  22407388.91225     -1243.13825        35.30025
C43  25473726.13124      3320.95024        27.10024
C41  26339892.19625     -1292.75725        32.50025
C39  35824431.28725      -263.77325        34.00025
C35  26086778.92326     -2972.58026        36.90026
C34  22113639.07125      1936.63125        31.30025
C33  26410258.88324     -2360.05024        25.20024
C26  25286671.22625     -2113.95025        31.40025
C25  22908822.97627      1877.11727        44.00027
C24  21895318.21126      -406.38226        37.40026
C16  35785323.06126        97.57626        37.10026
C12  22014633.81025       351.16425        34.30025
C11  23721548.03824      3002.70024        28.90024
C10  37615459.48425       228.29925        34.50025
C09  36387082.67126       545.87826        38.70026
C07  36631530.14426       172.03026        36.50026
C06  35551195.64426       100.80926        36.10026
C05  40034416.77424       -28.10024        27.10024
C04  38498960.44925       -19.50025        29.90025
C03  36831910.52325         6.75025        30.30025
E02  24020197.98726      -512.43726        39.50026
E03  27082331.51623     -2961.15023        22.80023
E07  26047576.56226       714.93126        36.00026
E08  24934998.78426     -1783.23026        35.70026
E25  26968827.99324     -1595.00024        28.10024
E30  25418327.18326      1058.66426        38.10026
E34  26444554.24024      2814.45024        26.00024
E36  25541132.96625      1164.30025        30.80025
> 2024 12 14 07 47 09.4284017  0 51                      
G02  24808559.07824      3565.90024        28.10024
G04  21772568.95026     -2025.44726        36.80026
G07  23712705.82227      3142.01427        41.70027
G08  20155674.00425      1137.14425        32.40025
G09  22141609.26926      -627.30626        37.30026
G16  21549112.04625     -1684.33525        30.10025
G26  23388370.85424     -2218.90024        27.70024
G27  20074550.76426     -1158.63026        35.80026
G31  23611651.48025     -3045.52325        29.80025
J02  39343428.59724       -67.87624        29.40024
J03  37054559.04924        16.25024        28.40024
R14  20700530.60725      -720.52325        30.60025
R18  22885107.75624      4484.60024        25.40024
R15  20761811.48326      1656.77526        39.60026
R05  22285029.68125     -2108.24925        35.30025
R24  20745136.72725     -1877.15825        31.30025
R17  19949037.25525      2385.66025        30.50025
R04  23488374.72323     -3682.55023        23.30023
C60  38502889.99025        -0.05025        34.70025
C59  37317979.48724       -47.50024        29.20024
C44  22407627.10925     -1243.52625        33.50025
C43  25473082.93824      3320.85024        25.90024
C41  26340141.78626     -1291.26326        39.00026
C39  35824482.71325      -261.75725        30.80025
C35  26087362.48124     -2969.30024        27.60024
C34  22113258.79625      1935.09125        33.30025
C33  26410706.33524     -2357.80024        24.50024
C26  25287094.99524     -2108.40024        28.40024
C25  22908460.38927      1878.08427        44.10027
C24  21895404.11325      -404.97125        33.70025
C16  35785308.83325        97.99325        30.50025
C14  26910949.02423     -2332.90023        20.90023
C12  22014571.61624       354.80024        28.70024
C11  23720992.68525      3002.37625        32.30025
C10  37615415.57625       231.37925        33.50025
C09  36386973.40925       546.69425        32.30025
C07  36631498.22825       173.15025        30.50025
C06  35551183.21425       102.12025        30.40025
C05  40034420.83325       -80.30025        29.80025
C03  36831912.18425       -18.85025        34.70025
C02  37971982.13025       -64.15025        31.70025
C01  37571399.14824        18.85024        28.70024
E02  24020294.68225      -511.04425        34.10025
E03  27082904.28224     -2968.96324        23.90024
E07  26047437.92026       716.45226        39.40026
E08  24935338.31125     -1781.65925        34.70025
E11  27290472.18623     -1096.80023        20.70023
E25  26969158.22724     -1585.07124        25.60024
E30  25418127.98226      1060.36926        40.50026
E34  26444007.28124      2817.18024        23.90024
E36  25540918.47624      1167.08124        27.00024
> 2024 12 14 07 47 10.4284017  0 44                      
G02  24807890.28725      3564.37225        29.70025
G04  21772953.03026     -2031.34826        35.70026
G07  23712111.97826      3137.55726        38.20026
G08  20155443.50925      1134.29425        29.90025
G09  22141733.72926      -631.82626        36.90026
G16  21549465.54723     -1685.90023        23.10023
G27  20074765.16125     -1162.69625        29.50025
G31  23612231.32424     -3049.50024        27.20024
J03  37054556.09725        12.55425        29.70025
J04  36876389.43923      -309.40023        19.70023
R14  20700648.17124      -721.55024        26.00024
R15  20761494.04925      1652.76025        34.40025
R05  22285424.85326     -2113.11326        35.50026
R24  20745476.43723     -1872.50023        23.10023
R17  19948530.05224      2383.85024        25.40024
C60  38502893.93326       -40.58726        36.50026
C44  22407862.49124     -1247.80024        28.10024
C43  25472446.82424      3321.80024        23.80024
C41  26340381.36525     -1295.74725        31.50025
C39  35824535.82224      -264.55024        27.20024
C35  26087938.42824     -2966.20024        23.50024
C34  22112882.60225      1929.35425        32.20025
C33  26411167.16124     -2364.60024        26.00024
C26  25287486.86924     -2117.30024        26.50024
C25  22908103.08227      1874.31727        44.00027
C24  21895479.10724      -409.85024        28.60024
C16  35785289.99124        95.60024        24.90024
C14  26911378.07324     -2333.85024        28.40024
C12  22014501.51024       348.70024        25.90024
C11  23720406.93625      2996.58525        32.80025
C10  37615369.75325       226.83725        33.70025
C09  36386873.02425       542.10525        31.70025
C07  36631466.49525       169.59625        32.50025
C06  35551156.57824       104.65024        23.70024
C05  40034421.77825       -31.15025        33.30025
C04  38498965.15325        -7.35025        29.80025
C03  36831911.33025       -21.50025        33.20025
E02  24020389.76224      -517.95024        28.20024
E07  26047304.25826       711.71426        38.40026
E08  24935682.21826     -1786.51626        36.00026
E25  26969448.47123     -1594.85023        23.10023
E30  25417924.16927      1056.20127        41.80027
E34  26443468.60024      2818.70024        26.00024
E36  25540696.37624      1161.83324        28.30024
> 2024 12 14 07 47 11.4284017  0 52                      
G02  24807227.12624      3568.70024        25.30024
G04  21773340.94226     -2029.88026        37.80026
G07  23711514.77227      3142.47027        43.10027
G08  20155241.12926      1134.33226        38.40026
G09  22141850.92826      -629.27926        40.50026
G16  21549755.42726     -1688.28926        39.30026
G26  23389217.19424     -2220.30024        29.20024
G27  20074994.48327     -1159.82327        43.20027
G31  23612809.90425     -3045.53825        35.40025
J02  39343452.90626       -69.15026        40.30026
J03  37054553.97825        14.29925        32.80025
J04  36876464.66724      -312.55024        26.60024
R14  20700781.25926      -723.95426        38.60026
R18  22883441.53523      4474.95023        22.90023
R15  20761186.44227      1657.55927        42.60027
R05  22285813.36526     -2110.14726        37.70026
R24  20745838.56726     -1878.56826        39.90026
R17  19948133.10725      2382.85025        34.10025
R04  23489829.34224     -3684.60024        24.40024
C60  38502902.90726       -26.12526        40.40026
