# 
# Header Description:
# 
# Version: v3.1.0.3 Platform: 14 Manufacturer: Xiaomi Model: 22101320I GNSS Hardware Model Name: qcom;MPSS.HI.4.3.c2-00125-LC_ALL_PACK-1.48771.36;
# 
# Raw,utcTimeMillis,TimeNanos,LeapSecond,TimeUncertaintyNanos,FullBiasNanos,BiasNanos,BiasUncertaintyNanos,DriftNanosPerSecond,DriftUncertaintyNanosPerSecond,HardwareClockDiscontinuityCount,Svid,TimeOffsetNanos,State,ReceivedSvTimeNanos,ReceivedSvTimeUncertaintyNanos,Cn0DbHz,PseudorangeRateMetersPerSecond,PseudorangeRateUncertaintyMetersPerSecond,AccumulatedDeltaRangeState,AccumulatedDeltaRangeMeters,AccumulatedDeltaRangeUncertaintyMeters,CarrierFrequencyHz,CarrierCycles,CarrierPhase,CarrierPhaseUncertainty,MultipathIndicator,SnrInDb,ConstellationType,AgcDb,BasebandCn0DbHz,FullInterSignalBiasNanos,FullInterSignalBiasUncertaintyNanos,SatelliteInterSignalBiasNanos,SatelliteInterSignalBiasUncertaintyNanos,CodeType,ChipsetElapsedRealtimeNanos,IsFullTracking
# 
# UncalAccel,utcTimeMillis,elapsedRealtimeNanos,UncalAccelXMps2,UncalAccelYMps2,UncalAccelZMps2,BiasXMps2,BiasYMps2,BiasZMps2
# 
# Accel,utcTimeMillis,elapsedRealtimeNanos,AccelXMps2,AccelYMps2,AccelZMps2
# 
# UncalGyro,utcTimeMillis,elapsedRealtimeNanos,UncalGyroXRadPerSec,UncalGyroYRadPerSec,UncalGyroZRadPerSec,DriftXRadPerSec,DriftYRadPerSec,DriftZRadPerSec
# 
# Gyro,utcTimeMillis,elapsedRealtimeNanos,GyroXRadPerSec,GyroYRadPerSec,GyroZRadPerSec
# 
# UncalMag,utcTimeMillis,elapsedRealtimeNanos,UncalMagXMicroT,UncalMagYMicroT,UncalMagZMicroT,BiasXMicroT,BiasYMicroT,BiasZMicroT
# 
# Mag,utcTimeMillis,elapsedRealtimeNanos,MagXMicroT,MagYMicroT,MagZMicroT
# 
# Pressure,utcTimeMillis,elapsedRealtimeNanos,PressureHpa
# 
# OrientationDeg,utcTimeMillis,elapsedRealtimeNanos,yawDeg,rollDeg,pitchDeg
# 
# Fix,Provider,LatitudeDegrees,LongitudeDegrees,AltitudeMeters,SpeedMps,AccuracyMeters,BearingDegrees,UnixTimeMillis,SpeedAccuracyMps,BearingAccuracyDegrees,elapsedRealtimeNanos,VerticalAccuracyMeters,MockLocation,NumberOfUsedSignals,VerticalSpeedAccuracyMps,SolutionType
# 
# Nav,Svid,Type,Status,MessageId,Sub-messageId,Data(Bytes)
# 
# Status,UnixTimeMillis,SignalCount,SignalIndex,ConstellationType,Svid,CarrierFrequencyHz,Cn0DbHz,AzimuthDegrees,ElevationDegrees,UsedInFix,HasAlmanacData,HasEphemerisData,BasebandCn0DbHz
# 
# Agc,utcTimeMillis,TimeNanos,LeapSecond,TimeUncertaintyNanos,FullBiasNanos,BiasNanos,BiasUncertaintyNanos,DriftNanosPerSecond,DriftUncertaintyNanosPerSecond,HardwareClockDiscontinuityCount,AgcDb,CarrierFrequencyHz,ConstellationType
# 
Status,,59,0,1,2,1575420030,28.20,185.0,11.0,1,1,0,24.6
Status,,59,1,1,4,1575420030,28.80,226.0,34.0,1,1,1,25.199999
Status,,59,2,1,8,1575420030,32.90,257.0,73.0,1,1,1,29.300001
Status,,59,3,1,16,1575420030,27.30,54.0,40.0,1,1,1,23.699999
Status,,59,4,1,26,1575420030,35.30,82.0,20.0,1,1,1,31.699999
Status,,59,5,1,27,1575420030,22.80,30.0,65.0,1,1,1,19.199999
Status,,59,6,1,31,1575420030,34.20,135.0,18.0,1,1,1,30.6
Status,,59,7,1,7,1575420030,0.00,317.0,30.0,0,1,1,0.0
Status,,59,8,1,9,1575420030,0.00,261.0,33.0,0,1,1,0.0
Status,,59,9,1,18,1575420030,0.00,0.0,0.0,0,1,1,0.0
Status,,59,10,4,194,1575420030,39.90,54.0,68.0,1,1,1,36.300003
Status,,59,11,4,195,1575420030,34.30,139.0,44.0,1,1,1,30.699999
Status,,59,12,4,196,1575420030,35.30,174.0,16.0,1,1,0,31.699999
Status,,59,13,3,14,1598062460,38.70,71.0,41.0,1,1,1,34.7
Status,,59,14,3,18,1600312450,33.60,183.0,24.0,1,1,1,29.599998
Status,,59,15,3,16,1601437440,26.40,309.0,8.0,1,1,0,22.4
Status,,59,16,3,15,1602000000,19.50,351.0,46.0,0,1,1,15.5
Status,,59,17,3,24,1603124990,26.00,41.0,38.0,1,1,1,22.0
Status,,59,18,3,17,1604249980,35.40,136.0,64.0,1,1,1,31.400002
Status,,59,19,3,4,1605374980,19.00,213.0,4.0,0,1,1,15.0
Status,,59,20,3,6,1599750020,0.00,319.0,7.0,0,1,0,0.0
Status,,59,21,3,5,1602562560,0.00,258.0,18.0,0,1,1,0.0
Status,,59,22,5,60,1561097980,26.50,237.0,30.0,1,1,1,22.2
Status,,59,23,5,59,1561097980,30.90,148.0,46.0,1,1,1,26.599998
Status,,59,24,5,44,1561097980,22.30,53.0,47.0,1,1,1,18.0
Status,,59,25,5,43,1561097980,30.40,205.0,21.0,1,1,1,26.099998
Status,,59,26,5,39,1561097980,28.20,159.0,73.0,1,1,1,23.900002
Status,,59,27,5,34,1561097980,37.60,173.0,64.0,1,1,1,33.3
Status,,59,28,5,26,1561097980,41.50,111.0,15.0,1,1,1,37.2
Status,,59,29,5,24,1561097980,38.50,78.0,59.0,1,1,1,34.2
Status,,59,30,5,16,1561097980,39.80,158.0,84.0,1,1,1,35.5
Status,,59,31,5,12,1561097980,42.00,87.0,67.0,1,1,1,37.7
Status,,59,32,5,11,1561097980,36.50,191.0,40.0,1,1,1,32.2
Status,,59,33,5,9,1561097980,22.00,316.0,75.0,1,1,1,17.7
Status,,59,34,5,6,1561097980,32.10,211.0,87.0,1,1,1,27.8
Status,,59,35,5,4,1561097980,25.10,124.0,33.0,1,1,0,20.8
Status,,59,36,5,3,1561097980,29.00,199.0,50.0,1,1,0,24.7
Status,,59,37,5,2,1561097980,24.50,234.0,34.0,1,1,0,20.2
Status,,59,38,5,1,1561097980,31.10,141.0,44.0,1,1,0,26.8
Status,,59,39,5,5,1561097980,0.00,254.0,14.0,0,1,0,0.0
Status,,59,40,5,7,1561097980,0.00,256.0,62.0,0,1,1,0.0
Status,,59,41,5,10,1561097980,0.00,250.0,49.0,0,1,0,0.0
Status,,59,42,5,14,1561097980,0.00,0.0,0.0,0,1,0,0.0
Status,,59,43,5,23,1561097980,0.00,303.0,3.0,0,1,0,0.0
Status,,59,44,5,25,1561097980,0.00,325.0,49.0,0,1,0,0.0
Status,,59,45,5,33,1561097980,0.00,225.0,5.0,1,1,1,0.0
Status,,59,46,5,35,1561097980,0.00,37.0,4.0,0,1,0,0.0
Status,,59,47,5,41,1561097980,0.00,271.0,7.0,0,1,1,0.0
Status,,59,48,5,56,1561097980,0.00,244.0,50.0,0,1,0,0.0
Status,,59,49,6,2,1575420030,21.20,31.0,54.0,1,1,1,16.900002
Status,,59,50,6,3,1575420030,29.60,180.0,12.0,1,1,1,25.3
Status,,59,51,6,8,1575420030,34.60,228.0,39.0,1,1,1,30.3
Status,,59,52,6,25,1575420030,32.00,75.0,15.0,1,1,1,27.7
Status,,59,53,6,34,1575420030,31.00,151.0,29.0,1,1,1,26.7
Status,,59,54,6,36,1575420030,35.20,87.0,37.0,1,1,1,30.900002
Status,,59,55,6,7,1575420030,0.00,293.0,29.0,0,1,1,0.0
Status,,59,56,6,11,1575420030,0.00,41.0,12.0,0,1,1,0.0
Status,,59,57,6,27,1575420030,0.00,0.0,0.0,0,1,0,0.0
Status,,59,58,6,30,1575420030,0.00,303.0,42.0,0,1,1,0.0
Raw,1734163334418,855349740000000,18,,-1417343202678606511,0.360809326171875,67.48619489371777,-8.061411708565368,10.758919379995008,206,2,0.0,16399,547352337962673,27,28.2,-689.7003784179688,0.6180000305175781,16,0.0,0.0,1575420030,,,,0,,1,0.51,24.599999999999998,0.0,0.0,,,C,885448503546871,
Raw,1734163334418,855349740000000,18,,-1417343202678606511,0.360809326171875,67.48619489371777,-8.061411708565368,10.758919379995008,206,4,0.0,16399,547352344676839,24,28.8,457.283447265625,6.393194198608398,16,0.0,0.0,1575420030,,,,0,,1,0.51,25.2,0.0,0.0,,,C,885448503546871,
Raw,1734163334418,855349740000000,18,,-1417343202678606511,0.360809326171875,67.48619489371777,-8.061411708565368,10.758919379995008,206,8,0.0,16399,547352351886964,16,32.9,-119.1893310546875,2.3249292373657227,16,0.0,0.0,1575420030,,,,0,,1,0.51,29.299999999999997,0.0,0.0,,,C,885448503546871,
Raw,1734163334418,855349740000000,18,,-1417343202678606511,0.360809326171875,67.48619489371777,-8.061411708565368,10.758919379995008,206,16,0.0,16399,547352345702447,31,27.3,340.2260437011719,0.6859999895095825,16,0.0,0.0,1575420030,,,,0,,1,0.51,23.7,0.0,0.0,,,C,885448503546871,
Raw,1734163334418,855349740000000,18,,-1417343202678606511,0.360809326171875,67.48619489371777,-8.061411708565368,10.758919379995008,206,26,0.0,16399,547352339269778,13,35.3,432.1560363769531,0.023391950875520706,16,0.0,0.0,1575420030,,,,0,,1,0.51,31.699999999999996,0.0,0.0,,,C,885448503546871,
Raw,1734163334418,855349740000000,18,,-1417343202678606511,0.360809326171875,67.48619489371777,-8.061411708565368,10.758919379995008,206,27,0.0,16399,547352350821331,53,22.8,310.169189453125,1.0084999799728394,16,0.0,0.0,1575420030,,,,0,,1,0.51,19.2,0.0,0.0,,,C,885448503546871,
Raw,1734163334418,855349740000000,18,,-1417343202678606511,0.360809326171875,67.48619489371777,-8.061411708565368,10.758919379995008,206,31,0.0,16399,547352338002532,14,34.2,614.0317993164062,0.025995653122663498,16,0.0,0.0,1575420030,,,,0,,1,0.51,30.6,0.0,0.0,,,C,885448503546871,
Raw,1734163334418,855349740000000,18,,-1417343202678606511,0.360809326171875,67.48619489371777,-8.061411708565368,10.758919379995008,206,194,0.0,16399,547352287354470,8,39.9,-5.468247413635254,0.03770025447010994,16,0.0,0.0,1575420030,,,,0,,4,0.51,36.3,0.0,0.0,,,C,885448503546871,
Raw,1734163334418,855349740000000,18,,-1417343202678606511,0.360809326171875,67.48619489371777,-8.061411708565368,10.758919379995008,206,195,0.0,16399,547352294996092,14,34.3,7.006342887878418,1.1737576723098755,16,0.0,0.0,1575420030,,,,0,,4,0.51,30.699999999999996,0.0,0.0,,,C,885448503546871,
Raw,1734163334418,855349740000000,18,,-1417343202678606511,0.360809326171875,67.48619489371777,-8.061411708565368,10.758919379995008,206,196,0.0,16399,547352295420461,13,35.3,54.960594177246094,0.029391951858997345,16,0.0,0.0,1575420030,,,,0,,4,0.51,31.699999999999996,0.0,0.0,,,C,885448503546871,
Raw,1734163334418,855349740000000,18,,-1417343202678606511,0.360809326171875,67.48619489371777,-8.061411708565368,10.758919379995008,206,14,0.0,49359,39734349063629,10,38.7,182.90016174316406,0.0358155220746994,16,0.0,0.0,1598062460,,,,0,,3,-0.3,34.7,3806.623046875,10.518780708312988,,,C,885448503546871,
Raw,1734163334418,855349740000000,18,,-1417343202678606511,0.360809326171875,67.48619489371777,-8.061411708565368,10.758919379995008,206,18,0.0,49359,39734344807734,16,33.6,-807.5433349609375,0.05168116092681885,16,0.0,0.0,1600312450,,,,0,,3,-0.3,29.6,3806.623046875,10.518780708312988,,,C,885448503546871,
Raw,1734163334418,855349740000000,18,,-1417343202678606511,0.360809326171875,67.48619489371777,-8.061411708565368,10.758919379995008,206,16,0.0,49359,39734339352625,35,26.4,-525.6354370117188,0.7249999642372131,16,0.0,0.0,1601437440,,,,0,,3,-0.3,22.4,3806.623046875,10.518780708312988,,,C,885448503546871,
Raw,1734163334418,855349740000000,18,,-1417343202678606511,0.360809326171875,67.48619489371777,-8.061411708565368,10.758919379995008,206,24,0.0,49359,39734348123606,35,26.0,477.6389465332031,0.7414999604225159,16,0.0,0.0,1603124990,,,,0,,3,-0.3,22.0,3806.623046875,10.518780708312988,,,C,885448503546871,
Raw,1734163334418,855349740000000,18,,-1417343202678606511,0.360809326171875,67.48619489371777,-8.061411708565368,10.758919379995008,206,17,0.0,49359,39734353226312,13,35.4,-309.40216064453125,0.03224113956093788,16,0.0,0.0,1604249980,,,,0,,3,-0.3,31.4,3806.623046875,10.518780708312988,,,C,885448503546871,
Raw,1734163334418,855349740000000,18,,-1417343202678606511,0.360809326171875,67.48619489371777,-8.061411708565368,10.758919379995008,206,60,0.0,16399,547338290160953,390,26.5,2.131638526916504,6.006600379943848,16,0.0,0.0,1561097980,,,,0,,5,0.33,22.2,-1527.4306640625,9.935863494873047,,,I,885448503546871,
Raw,1734163334418,855349740000000,18,,-1417343202678606511,0.360809326171875,67.48619489371777,-8.061411708565368,10.758919379995008,206,59,0.0,16399,547338294105712,21,30.9,5.1562604904174805,2.94569993019104,16,0.0,0.0,1561097980,,,,0,,5,0.33,26.599999999999998,-1527.4306640625,9.935863494873047,,,I,885448503546871,
Raw,1734163334418,855349740000000,18,,-1417343202678606511,0.360809326171875,67.48619489371777,-8.061411708565368,10.758919379995008,206,43,0.0,16399,547338335572549,21,30.4,-618.8751220703125,1.7938510179519653,16,0.0,0.0,1561097980,,,,0,,5,0.33,26.099999999999998,-1527.4306640625,9.935863494873047,,,I,885448503546871,
Raw,1734163334418,855349740000000,18,,-1417343202678606511,0.360809326171875,67.48619489371777,-8.061411708565368,10.758919379995008,206,39,0.0,16399,547338298913014,31,28.2,74.63614654541016,1.3335000276565552,16,0.0,0.0,1561097980,,,,0,,5,0.33,23.9,-1527.4306640625,9.935863494873047,,,I,885448503546871,
Raw,1734163334418,855349740000000,18,,-1417343202678606511,0.360809326171875,67.48619489371777,-8.061411708565368,10.758919379995008,206,34,0.0,16399,547338345864508,11,37.6,-291.96075439453125,2.347233772277832,16,0.0,0.0,1561097980,,,,0,,5,0.33,33.300000000000004,-1527.4306640625,9.935863494873047,,,I,885448503546871,
Raw,1734163334418,855349740000000,18,,-1417343202678606511,0.360809326171875,67.48619489371777,-8.061411708565368,10.758919379995008,206,26,0.0,16399,547338332960006,7,41.5,434.0733337402344,0.029744073748588562,16,0.0,0.0,1561097980,,,,0,,5,0.33,37.2,-1527.4306640625,9.935863494873047,,,I,885448503546871,
Raw,1734163334418,855349740000000,18,,-1417343202678606511,0.360809326171875,67.48619489371777,-8.061411708565368,10.758919379995008,206,24,0.0,16399,547338345259499,10,38.5,122.12889862060547,0.04195322468876839,16,0.0,0.0,1561097980,,,,0,,5,0.33,34.2,-1527.4306640625,9.935863494873047,,,I,885448503546871,
Raw,1734163334418,855349740000000,18,,-1417343202678606511,0.360809326171875,67.48619489371777,-8.061411708565368,10.758919379995008,206,16,0.0,16399,547338299262339,9,39.8,1.8356034755706787,0.020357903093099594,16,0.0,0.0,1561097980,,,,0,,5,0.33,35.5,-1527.4306640625,9.935863494873047,,,I,885448503546871,
Raw,1734163334418,855349740000000,18,,-1417343202678606511,0.360809326171875,67.48619489371777,-8.061411708565368,10.758919379995008,206,12,0.0,16399,547338345229127,7,42.0,28.74734115600586,0.040244076400995255,16,0.0,0.0,1561097980,,,,0,,5,0.33,37.7,-1527.4306640625,9.935863494873047,,,I,885448503546871,
Raw,1734163334418,855349740000000,18,,-1417343202678606511,0.360809326171875,67.48619489371777,-8.061411708565368,10.758919379995008,206,11,0.0,16399,547338341182212,12,36.5,-528.2317504882812,0.0495663583278656,16,0.0,0.0,1561097980,,,,0,,5,0.33,32.2,-1527.4306640625,9.935863494873047,,,I,885448503546871,
Raw,1734163334418,855349740000000,18,,-1417343202678606511,0.360809326171875,67.48619489371777,-8.061411708565368,10.758919379995008,206,9,0.0,16399,547338297530974,70,22.0,-91.0747299194336,1.7120001316070557,16,0.0,0.0,1561097980,,,,0,,5,0.33,17.7,-1527.4306640625,9.935863494873047,,,I,885448503546871,
Raw,1734163334418,855349740000000,18,,-1417343202678606511,0.360809326171875,67.48619489371777,-8.061411708565368,10.758919379995008,206,6,0.0,16399,547338300046429,19,32.1,0.5003528594970703,2.9500367641448975,16,0.0,0.0,1561097980,,,,0,,5,0.33,27.8,-1527.4306640625,9.935863494873047,,,I,885448503546871,
Raw,1734163334418,855349740000000,18,,-1417343202678606511,0.360809326171875,67.48619489371777,-8.061411708565368,10.758919379995008,206,1,0.0,16399,547338293277609,21,31.1,-3.6967601776123047,3.4977002143859863,16,0.0,0.0,1561097980,,,,0,,5,0.33,26.8,-1527.4306640625,9.935863494873047,,,I,885448503546871,
Raw,1734163334418,855349740000000,18,,-1417343202678606511,0.360809326171875,67.48619489371777,-8.061411708565368,10.758919379995008,206,2,0.0,23567,547352338171056,80,21.2,102.47314453125,1.7934999465942383,16,0.0,0.0,1575420030,,,,0,,6,0.6,16.9,-1467.841796875,10.48044204711914,,,C,885448503546871,
Raw,1734163334418,855349740000000,18,,-1417343202678606511,0.360809326171875,67.48619489371777,-8.061411708565368,10.758919379995008,206,3,0.0,23567,547352326544432,24,29.6,552.1487426757812,0.04489181935787201,16,0.0,0.0,1575420030,,,,0,,6,0.6,25.3,-1467.841796875,10.48044204711914,,,C,885448503546871,
Raw,1734163334418,855349740000000,18,,-1417343202678606511,0.360809326171875,67.48619489371777,-8.061411708565368,10.758919379995008,206,8,0.0,23567,547352334299687,14,34.6,392.1872253417969,0.596895694732666,16,0.0,0.0,1575420030,,,,0,,6,0.6,30.3,-1467.841796875,10.48044204711914,,,C,885448503546871,
Raw,1734163334418,855349740000000,18,,-1417343202678606511,0.360809326171875,67.48619489371777,-8.061411708565368,10.758919379995008,206,25,0.0,23567,547352327713225,19,32.0,299.6091003417969,0.6064765453338623,16,0.0,0.0,1575420030,,,,0,,6,0.6,27.7,-1467.841796875,10.48044204711914,,,C,885448503546871,
Raw,1734163334418,855349740000000,18,,-1417343202678606511,0.360809326171875,67.48619489371777,-8.061411708565368,10.758919379995008,206,34,0.0,23567,547352332026070,21,31.0,-521.33837890625,0.03860548511147499,16,0.0,0.0,1575420030,,,,0,,6,0.6,26.7,-1467.841796875,10.48044204711914,,,C,885448503546871,
Raw,1734163334418,855349740000000,18,,-1417343202678606511,0.360809326171875,67.48619489371777,-8.061411708565368,10.758919379995008,206,36,0.0,23567,547352333977442,14,35.2,-148.12889099121094,0.027514684945344925,16,0.0,0.0,1575420030,,,,0,,6,0.6,30.900000000000002,-1467.841796875,10.48044204711914,,,C,885448503546871,
Fix,GPS,31.0279204000,121.4326562800,25.70257568359375,0.0,5.883944,,1734163335000,0.086023256,,885449084613486,5.8814263,0,,,
Status,1734163335000,59,0,1,2,1575420030,32.70,185.0,11.0,1,1,0,29.1
Status,1734163335000,59,1,1,4,1575420030,30.30,226.0,34.0,1,1,1,26.699999
Status,1734163335000,59,2,1,8,1575420030,28.00,257.0,73.0,1,1,1,24.4
Status,1734163335000,59,3,1,16,1575420030,28.00,54.0,40.0,1,1,1,24.4
Status,1734163335000,59,4,1,26,1575420030,36.10,82.0,20.0,1,1,1,32.5
Status,1734163335000,59,5,1,27,1575420030,22.80,30.0,65.0,1,1,1,19.199999
Status,1734163335000,59,6,1,31,1575420030,25.50,135.0,18.0,1,1,1,21.9
Status,1734163335000,59,7,1,7,1575420030,0.00,317.0,30.0,0,1,1,0.0
Status,1734163335000,59,8,1,9,1575420030,0.00,261.0,33.0,0,1,1,0.0
Status,1734163335000,59,9,1,18,1575420030,0.00,0.0,0.0,0,1,1,0.0
Status,1734163335000,59,10,4,194,1575420030,41.10,54.0,68.0,1,1,1,37.5
Status,1734163335000,59,11,4,195,1575420030,31.20,139.0,44.0,1,1,1,27.6
Status,1734163335000,59,12,4,196,1575420030,33.90,174.0,16.0,1,1,0,30.300001
Status,1734163335000,59,13,3,14,1598062460,26.90,71.0,41.0,1,1,1,22.9
Status,1734163335000,59,14,3,18,1600312450,32.80,183.0,24.0,1,1,1,28.8
Status,1734163335000,59,15,3,16,1601437440,26.20,309.0,8.0,1,1,0,22.2
Status,1734163335000,59,16,3,15,1602000000,19.50,351.0,46.0,0,1,1,15.5
Status,1734163335000,59,17,3,24,1603124990,22.00,41.0,38.0,1,1,1,18.0
Status,1734163335000,59,18,3,17,1604249980,31.30,136.0,64.0,1,1,1,27.3
Status,1734163335000,59,19,3,4,1605374980,19.00,213.0,4.0,0,1,1,15.0
Status,1734163335000,59,20,3,6,1599750020,0.00,319.0,7.0,0,1,0,0.0
Status,1734163335000,59,21,3,5,1602562560,0.00,258.0,18.0,0,1,1,0.0
Status,1734163335000,59,22,5,60,1561097980,27.10,237.0,30.0,1,1,1,22.8
Status,1734163335000,59,23,5,59,1561097980,34.40,148.0,46.0,1,1,1,30.100002
Status,1734163335000,59,24,5,43,1561097980,32.90,205.0,21.0,1,1,1,28.600002
Status,1734163335000,59,25,5,39,1561097980,26.40,159.0,73.0,1,1,1,22.099998
Status,1734163335000,59,26,5,34,1561097980,41.10,173.0,64.0,1,1,1,36.8
Status,1734163335000,59,27,5,26,1561097980,42.70,111.0,15.0,1,1,1,38.4
Status,1734163335000,59,28,5,24,1561097980,42.20,78.0,59.0,1,1,1,37.9
Status,1734163335000,59,29,5,16,1561097980,41.50,158.0,84.0,1,1,1,37.2
Status,1734163335000,59,30,5,12,1561097980,44.40,87.0,67.0,1,1,1,40.100002
Status,1734163335000,59,31,5,11,1561097980,35.90,191.0,40.0,1,1,1,31.600002
Status,1734163335000,59,32,5,9,1561097980,25.80,316.0,75.0,1,1,1,21.5
Status,1734163335000,59,33,5,6,1561097980,34.90,211.0,87.0,1,1,1,30.600002
Status,1734163335000,59,34,5,4,1561097980,25.10,124.0,33.0,1,1,0,20.8
Status,1734163335000,59,35,5,3,1561097980,25.70,199.0,50.0,1,1,0,21.400002
Status,1734163335000,59,36,5,2,1561097980,24.50,234.0,34.0,1,1,0,20.2
Status,1734163335000,59,37,5,1,1561097980,33.50,141.0,44.0,1,1,0,29.2
Status,1734163335000,59,38,5,5,1561097980,0.00,254.0,14.0,0,1,0,0.0
Status,1734163335000,59,39,5,7,1561097980,0.00,256.0,62.0,0,1,1,0.0
Status,1734163335000,59,40,5,10,1561097980,0.00,250.0,49.0,0,1,0,0.0
Status,1734163335000,59,41,5,14,1561097980,0.00,0.0,0.0,0,1,0,0.0
Status,1734163335000,59,42,5,23,1561097980,0.00,303.0,3.0,0,1,0,0.0
Status,1734163335000,59,43,5,25,1561097980,0.00,325.0,49.0,0,1,0,0.0
Status,1734163335000,59,44,5,33,1561097980,0.00,225.0,5.0,1,1,1,0.0
Status,1734163335000,59,45,5,35,1561097980,0.00,37.0,4.0,0,1,0,0.0
Status,1734163335000,59,46,5,41,1561097980,0.00,271.0,7.0,0,1,1,0.0
Status,1734163335000,59,47,5,44,1561097980,0.00,53.0,47.0,1,1,1,0.0
Status,1734163335000,59,48,5,56,1561097980,0.00,244.0,50.0,0,1,0,0.0
Status,1734163335000,59,49,6,2,1575420030,25.70,31.0,54.0,1,1,1,21.400002
Status,1734163335000,59,50,6,3,1575420030,34.40,180.0,12.0,1,1,1,30.100002
Status,1734163335000,59,51,6,8,1575420030,32.10,228.0,39.0,1,1,1,27.8
Status,1734163335000,59,52,6,25,1575420030,31.70,75.0,15.0,1,1,1,27.400002
Status,1734163335000,59,53,6,34,1575420030,28.10,151.0,29.0,1,1,1,23.8
Status,1734163335000,59,54,6,36,1575420030,28.90,87.0,37.0,1,1,1,24.599998
Status,1734163335000,59,55,6,7,1575420030,0.00,293.0,29.0,0,1,1,0.0
Status,1734163335000,59,56,6,11,1575420030,0.00,41.0,12.0,0,1,1,0.0
Status,1734163335000,59,57,6,27,1575420030,0.00,0.0,0.0,0,1,0,0.0
Status,1734163335000,59,58,6,30,1575420030,0.00,303.0,42.0,0,1,1,0.0
Raw,1734163335418,855350740000000,18,,-1417343202678606520,0.3009033203125,66.03762449230999,-7.991240285750501,10.966185729917754,206,2,0.0,16399,547353337964935,16,32.7,-689.9102783203125,0.03240523114800453,16,0.0,0.0,1575420030,,,,0,,1,0.86,29.1,0.0,0.0,,,C,885449503720101,
Raw,1734163335418,855350740000000,18,,-1417343202678606520,0.3009033203125,66.03762449230999,-7.991240285750501,10.966185729917754,206,4,0.0,16399,547353344675355,21,30.3,456.6691589355469,0.08159103989601135,16,0.0,0.0,1575420030,,,,0,,1,0.86,26.7,0.0,0.0,,,C,885449503720101,
Raw,1734163335418,855350740000000,18,,-1417343202678606520,0.3009033203125,66.03762449230999,-7.991240285750501,10.966185729917754,206,8,0.0,16399,547353351887383,27,28.0,-119.2475357055664,0.6270000338554382,16,0.0,0.0,1575420030,,,,0,,1,0.86,24.4,0.0,0.0,,,C,885449503720101,
Raw,1734163335418,855350740000000,18,,-1417343202678606520,0.3009033203125,66.03762449230999,-7.991240285750501,10.966185729917754,206,16,0.0,16399,547353345701327,27,28.0,340.1689453125,0.6360000371932983,16,0.0,0.0,1575420030,,,,0,,1,0.86,24.4,0.0,0.0,,,C,885449503720101,
Raw,1734163335418,855350740000000,18,,-1417343202678606520,0.3009033203125,66.03762449230999,-7.991240285750501,10.966185729917754,206,26,0.0,16399,547353339268353,12,36.1,432.0875244140625,0.022497572004795074,16,0.0,0.0,1575420030,,,,0,,1,0.86,32.5,0.0,0.0,,,C,885449503720101,
Raw,1734163335418,855350740000000,18,,-1417343202678606520,0.3009033203125,66.03762449230999,-7.991240285750501,10.966185729917754,206,31,0.0,16399,547353338000629,40,25.5,613.74462890625,0.7864999771118164,16,0.0,0.0,1575420030,,,,0,,1,0.86,21.9,0.0,0.0,,,C,885449503720101,
Raw,1734163335418,855350740000000,18,,-1417343202678606520,0.3009033203125,66.03762449230999,-7.991240285750501,10.966185729917754,206,194,0.0,16399,547353287354468,7,41.1,-5.561063289642334,0.037205491214990616,16,0.0,0.0,1575420030,,,,0,,4,0.86,37.5,0.0,0.0,,,C,885449503720101,
Raw,1734163335418,855350740000000,18,,-1417343202678606520,0.3009033203125,66.03762449230999,-7.991240285750501,10.966185729917754,206,195,0.0,16399,547353294996033,19,31.2,6.951648235321045,1.7608517408370972,16,0.0,0.0,1575420030,,,,0,,4,0.86,27.599999999999998,0.0,0.0,,,C,885449503720101,
Raw,1734163335418,855350740000000,18,,-1417343202678606520,0.3009033203125,66.03762449230999,-7.991240285750501,10.966185729917754,206,196,0.0,16399,547353295420310,14,33.9,54.86415481567383,0.03049565479159355,16,0.0,0.0,1575420030,,,,0,,4,0.86,30.299999999999997,0.0,0.0,,,C,885449503720101,
Raw,1734163335418,855350740000000,18,,-1417343202678606520,0.3009033203125,66.03762449230999,-7.991240285750501,10.966185729917754,206,14,0.0,49359,39735349063085,35,26.9,182.7386932373047,0.7400000095367432,16,0.0,0.0,1598062460,,,,0,,3,-0.05,22.9,3806.62255859375,10.55252456665039,,,C,885449503720101,
Raw,1734163335418,855350740000000,18,,-1417343202678606520,0.3009033203125,66.03762449230999,-7.991240285750501,10.966185729917754,206,18,0.0,49359,39735344810504,17,32.8,-807.5888061523438,0.05304870009422302,16,0.0,0.0,1600312450,,,,0,,3,-0.05,28.799999999999997,3806.62255859375,10.55252456665039,,,C,885449503720101,
Raw,1734163335418,855350740000000,18,,-1417343202678606520,0.3009033203125,66.03762449230999,-7.991240285750501,10.966185729917754,206,16,0.0,49359,39735339354361,35,26.2,-526.3186645507812,0.7249999642372131,16,0.0,0.0,1601437440,,,,0,,3,-0.05,22.2,3806.62255859375,10.55252456665039,,,C,885449503720101,
Raw,1734163335418,855350740000000,18,,-1417343202678606520,0.3009033203125,66.03762449230999,-7.991240285750501,10.966185729917754,206,24,0.0,49359,39735348122002,61,22.0,476.572998046875,1.0115000009536743,16,0.0,0.0,1603124990,,,,0,,3,-0.05,18.0,3806.62255859375,10.55252456665039,,,C,885449503720101,
Raw,1734163335418,855350740000000,18,,-1417343202678606520,0.3009033203125,66.03762449230999,-7.991240285750501,10.966185729917754,206,17,0.0,49359,39735353227341,19,31.3,-309.33123779296875,1.170490026473999,16,0.0,0.0,1604249980,,,,0,,3,-0.05,27.3,3806.62255859375,10.55252456665039,,,C,885449503720101,
Raw,1734163335418,855350740000000,18,,-1417343202678606520,0.3009033203125,66.03762449230999,-7.991240285750501,10.966185729917754,206,60,0.0,16399,547339290160923,353,27.1,2.3620858192443848,6.116100311279297,16,0.0,0.0,1561097980,,,,0,,5,0.63,22.8,-1528.0560302734375,9.80130386352539,,,I,885449503720101,
Raw,1734163335418,855350740000000,18,,-1417343202678606520,0.3009033203125,66.03762449230999,-7.991240285750501,10.966185729917754,206,59,0.0,16399,547339294105700,14,34.4,1.2098488807678223,1.4881000518798828,16,0.0,0.0,1561097980,,,,0,,5,0.63,30.099999999999998,-1528.0560302734375,9.80130386352539,,,I,885449503720101,
Raw,1734163335418,855350740000000,18,,-1417343202678606520,0.3009033203125,66.03762449230999,-7.991240285750501,10.966185729917754,206,43,0.0,16399,547339335574619,17,32.9,-619.0222778320312,0.03693927824497223,16,0.0,0.0,1561097980,,,,0,,5,0.63,28.599999999999998,-1528.0560302734375,9.80130386352539,,,I,885449503720101,
Raw,1734163335418,855350740000000,18,,-1417343202678606520,0.3009033203125,66.03762449230999,-7.991240285750501,10.966185729917754,206,39,0.0,16399,547339298912764,35,26.4,74.0024185180664,0.7264999747276306,16,0.0,0.0,1561097980,,,,0,,5,0.63,22.099999999999998,-1528.0560302734375,9.80130386352539,,,I,885449503720101,
Raw,1734163335418,855350740000000,18,,-1417343202678606520,0.3009033203125,66.03762449230999,-7.991240285750501,10.966185729917754,206,34,0.0,16399,547339345865494,8,41.1,-292.05609130859375,0.040743377059698105,16,0.0,0.0,1561097980,,,,0,,5,0.63,36.800000000000004,-1528.0560302734375,9.80130386352539,,,I,885449503720101,
Raw,1734163335418,855350740000000,18,,-1417343202678606520,0.3009033203125,66.03762449230999,-7.991240285750501,10.966185729917754,206,26,0.0,16399,547339332958551,6,42.7,434.02191162109375,0.02934079058468342,16,0.0,0.0,1561097980,,,,0,,5,0.63,38.400000000000006,-1528.0560302734375,9.80130386352539,,,I,885449503720101,
Raw,1734163335418,855350740000000,18,,-1417343202678606520,0.3009033203125,66.03762449230999,-7.991240285750501,10.966185729917754,206,24,0.0,16399,547339345259098,7,42.2,122.09815216064453,0.040244076400995255,16,0.0,0.0,1561097980,,,,0,,5,0.63,37.900000000000006,-1528.0560302734375,9.80130386352539,,,I,885449503720101,
Raw,1734163335418,855350740000000,18,,-1417343202678606520,0.3009033203125,66.03762449230999,-7.991240285750501,10.966185729917754,206,16,0.0,16399,547339299262340,7,41.5,1.771450400352478,0.01924407295882702,16,0.0,0.0,1561097980,,,,0,,5,0.63,37.2,-1528.0560302734375,9.80130386352539,,,I,885449503720101,
Raw,1734163335418,855350740000000,18,,-1417343202678606520,0.3009033203125,66.03762449230999,-7.991240285750501,10.966185729917754,206,12,0.0,16399,547339345229028,5,44.4,28.763015747070312,0.039034225046634674,16,0.0,0.0,1561097980,,,,0,,5,0.63,40.1,-1528.0560302734375,9.80130386352539,,,I,885449503720101,
Raw,1734163335418,855350740000000,18,,-1417343202678606520,0.3009033203125,66.03762449230999,-7.991240285750501,10.966185729917754,206,11,0.0,16399,547339341183981,13,35.9,-528.2460327148438,0.050468944013118744,16,0.0,0.0,1561097980,,,,0,,5,0.63,31.599999999999998,-1528.0560302734375,9.80130386352539,,,I,885449503720101,
Raw,1734163335418,855350740000000,18,,-1417343202678606520,0.3009033203125,66.03762449230999,-7.991240285750501,10.966185729917754,206,9,0.0,16399,547339297531239,40,25.8,-91.88129425048828,0.7879999876022339,16,0.0,0.0,1561097980,,,,0,,5,0.63,21.5,-1528.0560302734375,9.80130386352539,,,I,885449503720101,
Raw,1734163335418,855350740000000,18,,-1417343202678606520,0.3009033203125,66.03762449230999,-7.991240285750501,10.966185729917754,206,6,0.0,16399,547339300046436,14,34.9,0.31192898750305176,0.053082771599292755,16,0.0,0.0,1561097980,,,,0,,5,0.63,30.599999999999998,-1528.0560302734375,9.80130386352539,,,I,885449503720101,
Raw,1734163335418,855350740000000,18,,-1417343202678606520,0.3009033203125,66.03762449230999,-7.991240285750501,10.966185729917754,206,3,0.0,16399,547339295744492,40,25.7,-0.04800987243652344,6.592199802398682,16,0.0,0.0,1561097980,,,,0,,5,0.63,21.4,-1528.0560302734375,9.80130386352539,,,I,885449503720101,
Raw,1734163335418,855350740000000,18,,-1417343202678606520,0.3009033203125,66.03762449230999,-7.991240285750501,10.966185729917754,206,1,0.0,16399,547339293277615,16,33.5,-2.0548224449157715,1.6574000120162964,16,0.0,0.0,1561097980,,,,0,,5,0.63,29.2,-1528.0560302734375,9.80130386352539,,,I,885449503720101,
Raw,1734163335418,855350740000000,18,,-1417343202678606520,0.3009033203125,66.03762449230999,-7.991240285750501,10.966185729917754,206,2,0.0,23567,547353338170701,40,25.7,102.13106536865234,0.6089412569999695,16,0.0,0.0,1575420030,,,,0,,6,0.91,21.4,-1467.843017578125,10.514047622680664,,,C,885449503720101,
Raw,1734163335418,855350740000000,18,,-1417343202678606520,0.3009033203125,66.03762449230999,-7.991240285750501,10.966185729917754,206,3,0.0,23567,547353326542601,14,34.4,552.0659790039062,0.02601468376815319,16,0.0,0.0,1575420030,,,,0,,6,0.91,30.099999999999998,-1467.843017578125,10.514047622680664,,,C,885449503720101,
Raw,1734163335418,855350740000000,18,,-1417343202678606520,0.3009033203125,66.03762449230999,-7.991240285750501,10.966185729917754,206,8,0.0,23567,547353334298387,19,32.1,392.1366271972656,0.03109552338719368,16,0.0,0.0,1575420030,,,,0,,6,0.91,27.8,-1467.843017578125,10.514047622680664,,,C,885449503720101,
Raw,1734163335418,855350740000000,18,,-1417343202678606520,0.3009033203125,66.03762449230999,-7.991240285750501,10.966185729917754,206,25,0.0,23567,547353327712205,19,31.7,299.55670166015625,0.035595525056123734,16,0.0,0.0,1575420030,,,,0,,6,0.91,27.4,-1467.843017578125,10.514047622680664,,,C,885449503720101,
Raw,1734163335418,855350740000000,18,,-1417343202678606520,0.3009033203125,66.03762449230999,-7.991240285750501,10.966185729917754,206,34,0.0,23567,547353332027777,31,28.1,-521.3931274414062,0.6035873889923096,16,0.0,0.0,1575420030,,,,0,,6,0.91,23.8,-1467.843017578125,10.514047622680664,,,C,885449503720101,
Raw,1734163335418,855350740000000,18,,-1417343202678606520,0.3009033203125,66.03762449230999,-7.991240285750501,10.966185729917754,206,36,0.0,23567,547353333977984,27,28.9,-148.15719604492188,0.06169142574071884,16,0.0,0.0,1575420030,,,,0,,6,0.91,24.599999999999998,-1467.843017578125,10.514047622680664,,,C,885449503720101,
Fix,GPS,31.0279163000,121.4326572200,25.2049560546875,0.0,5.7936006,,1734163336000,0.086023256,,885450084809163,5.6743903,0,,,
Status,1734163336000,59,0,1,2,1575420030,34.80,185.0,11.0,1,1,0,31.199999
Status,1734163336000,59,1,1,4,1575420030,33.80,226.0,34.0,1,1,1,30.199999
Status,1734163336000,59,2,1,8,1575420030,29.90,257.0,73.0,1,1,1,26.3
Status,1734163336000,59,3,1,16,1575420030,29.70,54.0,40.0,1,1,1,26.1
Status,1734163336000,59,4,1,26,1575420030,34.40,82.0,20.0,1,1,1,30.800001
Status,1734163336000,59,5,1,27,1575420030,22.40,30.0,65.0,1,1,1,18.8
Status,1734163336000,59,6,1,31,1575420030,28.00,135.0,18.0,1,1,1,24.4
Status,1734163336000,59,7,1,7,1575420030,0.00,317.0,30.0,0,1,1,0.0
Status,1734163336000,59,8,1,9,1575420030,0.00,261.0,33.0,0,1,1,0.0
Status,1734163336000,59,9,1,18,1575420030,0.00,0.0,0.0,0,1,1,0.0
Status,1734163336000,59,10,4,194,1575420030,40.00,54.0,68.0,1,1,1,36.4
Status,1734163336000,59,11,4,195,1575420030,26.60,139.0,44.0,1,1,1,23.0
Status,1734163336000,59,12,4,196,1575420030,33.10,174.0,16.0,1,1,0,29.499998
Status,1734163336000,59,13,3,14,1598062460,22.10,71.0,41.0,1,1,1,18.1
Status,1734163336000,59,14,3,18,1600312450,29.30,183.0,24.0,1,1,1,25.3
Status,1734163336000,59,15,3,16,1601437440,24.10,309.0,8.0,1,1,0,20.1
Status,1734163336000,59,16,3,15,1602000000,19.50,351.0,46.0,0,1,1,15.5
Status,1734163336000,59,17,3,24,1603124990,24.10,41.0,38.0,1,1,1,20.1
Status,1734163336000,59,18,3,17,1604249980,25.20,136.0,64.0,1,1,1,21.2
Status,1734163336000,59,19,3,4,1605374980,19.00,213.0,4.0,0,1,1,15.0
Status,1734163336000,59,20,3,6,1599750020,0.00,319.0,7.0,0,1,0,0.0
Status,1734163336000,59,21,3,5,1602562560,0.00,258.0,18.0,0,1,1,0.0
Status,1734163336000,59,22,5,60,1561097980,27.50,237.0,30.0,1,1,1,23.2
Status,1734163336000,59,23,5,59,1561097980,35.60,148.0,46.0,1,1,1,31.3
Status,1734163336000,59,24,5,44,1561097980,26.30,53.0,47.0,1,1,1,22.0
Status,1734163336000,59,25,5,43,1561097980,32.70,205.0,21.0,1,1,1,28.400002
Status,1734163336000,59,26,5,39,1561097980,28.50,159.0,73.0,1,1,1,24.2
Status,1734163336000,59,27,5,34,1561097980,42.60,173.0,64.0,1,1,1,38.3
Status,1734163336000,59,28,5,26,1561097980,43.20,111.0,15.0,1,1,1,38.9
Status,1734163336000,59,29,5,24,1561097980,42.80,78.0,59.0,1,1,1,38.5
Status,1734163336000,59,30,5,16,1561097980,39.90,158.0,84.0,1,1,1,35.600002
Status,1734163336000,59,31,5,12,1561097980,44.70,87.0,67.0,1,1,1,40.4
Status,1734163336000,59,32,5,11,1561097980,34.90,191.0,40.0,1,1,1,30.600002
Status,1734163336000,59,33,5,9,1561097980,25.00,316.0,75.0,1,1,1,20.7
Status,1734163336000,59,34,5,6,1561097980,33.30,211.0,87.0,1,1,1,29.0
Status,1734163336000,59,35,5,4,1561097980,25.10,124.0,33.0,1,1,0,20.8
Status,1734163336000,59,36,5,3,1561097980,25.70,199.0,50.0,1,1,0,21.400002
Status,1734163336000,59,37,5,2,1561097980,24.50,234.0,34.0,1,1,0,20.2
Status,1734163336000,59,38,5,1,1561097980,33.70,141.0,44.0,1,1,0,29.400002
Status,1734163336000,59,39,5,5,1561097980,0.00,254.0,14.0,0,1,0,0.0
Status,1734163336000,59,40,5,7,1561097980,0.00,256.0,62.0,0,1,1,0.0
Status,1734163336000,59,41,5,10,1561097980,0.00,250.0,49.0,0,1,0,0.0
Status,1734163336000,59,42,5,14,1561097980,0.00,0.0,0.0,0,1,0,0.0
Status,1734163336000,59,43,5,23,1561097980,0.00,303.0,3.0,0,1,0,0.0
Status,1734163336000,59,44,5,25,1561097980,0.00,325.0,49.0,0,1,0,0.0
Status,1734163336000,59,45,5,33,1561097980,0.00,225.0,5.0,1,1,1,0.0
Status,1734163336000,59,46,5,35,1561097980,0.00,37.0,4.0,0,1,0,0.0
Status,1734163336000,59,47,5,41,1561097980,0.00,271.0,7.0,0,1,1,0.0
Status,1734163336000,59,48,5,56,1561097980,0.00,244.0,50.0,0,1,0,0.0
Status,1734163336000,59,49,6,2,1575420030,25.70,31.0,54.0,1,1,1,21.400002
Status,1734163336000,59,50,6,3,1575420030,36.10,180.0,12.0,1,1,1,31.8
Status,1734163336000,59,51,6,8,1575420030,29.80,228.0,39.0,1,1,1,25.5
Status,1734163336000,59,52,6,25,1575420030,31.10,75.0,15.0,1,1,1,26.8
Status,1734163336000,59,53,6,34,1575420030,24.90,151.0,29.0,1,1,1,20.599998
Status,1734163336000,59,54,6,36,1575420030,30.80,87.0,37.0,1,1,1,26.5
Status,1734163336000,59,55,6,7,1575420030,0.00,293.0,29.0,0,1,1,0.0
Status,1734163336000,59,56,6,11,1575420030,0.00,41.0,12.0,0,1,1,0.0
Status,1734163336000,59,57,6,27,1575420030,0.00,0.0,0.0,0,1,0,0.0
Status,1734163336000,59,58,6,30,1575420030,0.00,303.0,42.0,0,1,1,0.0
Raw,1734163336418,855351740000000,18,,-1417343202678606531,0.6614742279052734,65.76693704118952,-8.129433492848262,10.688118096389418,206,2,0.0,16399,547354337967278,13,34.8,-689.973388671875,0.026391953229904175,16,0.0,0.0,1575420030,,,,0,,1,1.42,31.199999999999996,0.0,0.0,,,C,885450504602079,
Raw,1734163336418,855351740000000,18,,-1417343202678606531,0.6614742279052734,65.76693704118952,-8.129433492848262,10.688118096389418,206,4,0.0,16399,547354344673799,14,33.8,456.638916015625,0.046995654702186584,16,0.0,0.0,1575420030,,,,0,,1,1.42,30.199999999999996,0.0,0.0,,,C,885450504602079,
Raw,1734163336418,855351740000000,18,,-1417343202678606531,0.6614742279052734,65.76693704118952,-8.129433492848262,10.688118096389418,206,8,0.0,16399,547354351887727,21,29.9,-119.2284927368164,0.5870000123977661,16,0.0,0.0,1575420030,,,,0,,1,1.42,26.299999999999997,0.0,0.0,,,C,885450504602079,
Raw,1734163336418,855351740000000,18,,-1417343202678606531,0.6614742279052734,65.76693704118952,-8.129433492848262,10.688118096389418,206,16,0.0,16399,547354345700153,21,29.7,340.00091552734375,0.6509720683097839,16,0.0,0.0,1575420030,,,,0,,1,1.42,26.099999999999998,0.0,0.0,,,C,885450504602079,
Raw,1734163336418,855351740000000,18,,-1417343202678606531,0.6614742279052734,65.76693704118952,-8.129433492848262,10.688118096389418,206,26,0.0,16399,547354339266910,14,34.4,432.0419006347656,0.024495653808116913,16,0.0,0.0,1575420030,,,,0,,1,1.42,30.799999999999997,0.0,0.0,,,C,885450504602079,
Raw,1734163336418,855351740000000,18,,-1417343202678606531,0.6614742279052734,65.76693704118952,-8.129433492848262,10.688118096389418,206,27,0.0,16399,547354350819276,61,22.4,309.19866943359375,1.7015000581741333,16,0.0,0.0,1575420030,,,,0,,1,1.42,18.799999999999997,0.0,0.0,,,C,885450504602079,
Raw,1734163336418,855351740000000,18,,-1417343202678606531,0.6614742279052734,65.76693704118952,-8.129433492848262,10.688118096389418,206,31,0.0,16399,547354337998576,27,28.0,613.9920654296875,0.6180000305175781,16,0.0,0.0,1575420030,,,,0,,1,1.42,24.4,0.0,0.0,,,C,885450504602079,
Raw,1734163336418,855351740000000,18,,-1417343202678606531,0.6614742279052734,65.76693704118952,-8.129433492848262,10.688118096389418,206,194,0.0,16399,547354287354502,8,40.0,-5.627670764923096,0.03770025447010994,16,0.0,0.0,1575420030,,,,0,,4,1.42,36.4,0.0,0.0,,,C,885450504602079,
Raw,1734163336418,855351740000000,18,,-1417343202678606531,0.6614742279052734,65.76693704118952,-8.129433492848262,10.688118096389418,206,195,0.0,16399,547354294995957,31,26.6,6.755425453186035,0.7324999570846558,16,0.0,0.0,1575420030,,,,0,,4,1.42,23.0,0.0,0.0,,,C,885450504602079,
Raw,1734163336418,855351740000000,18,,-1417343202678606531,0.6614742279052734,65.76693704118952,-8.129433492848262,10.688118096389418,206,196,0.0,16399,547354295420100,16,33.1,54.79539489746094,0.035405233502388,16,0.0,0.0,1575420030,,,,0,,4,1.42,29.5,0.0,0.0,,,C,885450504602079,
Raw,1734163336418,855351740000000,18,,-1417343202678606531,0.6614742279052734,65.76693704118952,-8.129433492848262,10.688118096389418,206,14,0.0,49359,39736349061762,61,22.1,182.813720703125,1.0099999904632568,16,0.0,0.0,1598062460,,,,0,,3,0.12,18.1,3806.618408203125,10.586484909057617,,,C,885450504602079,
Raw,1734163336418,855351740000000,18,,-1417343202678606531,0.6614742279052734,65.76693704118952,-8.129433492848262,10.688118096389418,206,18,0.0,49359,39736344813147,24,29.3,-807.6381225585938,1.236323356628418,16,0.0,0.0,1600312450,,,,0,,3,0.12,25.3,3806.618408203125,10.586484909057617,,,C,885450504602079,
Raw,1734163336418,855351740000000,18,,-1417343202678606531,0.6614742279052734,65.76693704118952,-8.129433492848262,10.688118096389418,206,16,0.0,49359,39736339356059,46,24.1,-525.8787841796875,0.8449999690055847,16,0.0,0.0,1601437440,,,,0,,3,0.12,20.1,3806.618408203125,10.586484909057617,,,C,885450504602079,
Raw,1734163336418,855351740000000,18,,-1417343202678606531,0.6614742279052734,65.76693704118952,-8.129433492848262,10.688118096389418,206,24,0.0,49359,39736348120434,46,24.1,477.0404968261719,0.8614999651908875,16,0.0,0.0,1603124990,,,,0,,3,0.12,20.1,3806.618408203125,10.586484909057617,,,C,885450504602079,
Raw,1734163336418,855351740000000,18,,-1417343202678606531,0.6614742279052734,65.76693704118952,-8.129433492848262,10.688118096389418,206,17,0.0,49359,39736353228086,40,25.2,-309.528564453125,0.793999969959259,16,0.0,0.0,1604249980,,,,0,,3,0.12,21.2,3806.618408203125,10.586484909057617,,,C,885450504602079,
Raw,1734163336418,855351740000000,18,,-1417343202678606531,0.6614742279052734,65.76693704118952,-8.129433492848262,10.688118096389418,206,60,0.0,16399,547340290160916,368,27.5,1.5939278602600098,6.866100311279297,16,0.0,0.0,1561097980,,,,0,,5,1.41,23.2,-1528.0635986328125,9.83736801147461,,,I,885450504602079,
Raw,1734163336418,855351740000000,18,,-1417343202678606531,0.6614742279052734,65.76693704118952,-8.129433492848262,10.688118096389418,206,59,0.0,16399,547340294105671,13,35.6,5.050638675689697,1.3622000217437744,16,0.0,0.0,1561097980,,,,0,,5,1.41,31.3,-1528.0635986328125,9.83736801147461,,,I,885450504602079,
Raw,1734163336418,855351740000000,18,,-1417343202678606531,0.6614742279052734,65.76693704118952,-8.129433492848262,10.688118096389418,206,44,0.0,16399,547340342994988,35,26.3,318.1710510253906,0.7804999947547913,16,0.0,0.0,1561097980,,,,0,,5,1.41,22.0,-1528.0635986328125,9.83736801147461,,,I,885450504602079,
Raw,1734163336418,855351740000000,18,,-1417343202678606531,0.6614742279052734,65.76693704118952,-8.129433492848262,10.688118096389418,206,43,0.0,16399,547340335576693,17,32.7,-619.0667724609375,0.03693927824497223,16,0.0,0.0,1561097980,,,,0,,5,1.41,28.400000000000002,-1528.0635986328125,9.83736801147461,,,I,885450504602079,
Raw,1734163336418,855351740000000,18,,-1417343202678606531,0.6614742279052734,65.76693704118952,-8.129433492848262,10.688118096389418,206,39,0.0,16399,547340298912563,27,28.5,74.24246978759766,0.6165000200271606,16,0.0,0.0,1561097980,,,,0,,5,1.41,24.2,-1528.0635986328125,9.83736801147461,,,I,885450504602079,
Raw,1734163336418,855351740000000,18,,-1417343202678606531,0.6614742279052734,65.76693704118952,-8.129433492848262,10.688118096389418,206,34,0.0,16399,547340345866458,6,42.6,-292.0343322753906,0.6159592866897583,16,0.0,0.0,1561097980,,,,0,,5,1.41,38.300000000000004,-1528.0635986328125,9.83736801147461,,,I,885450504602079,
Raw,1734163336418,855351740000000,18,,-1417343202678606531,0.6614742279052734,65.76693704118952,-8.129433492848262,10.688118096389418,206,26,0.0,16399,547340332957109,6,43.2,433.9965515136719,0.02934079058468342,16,0.0,0.0,1561097980,,,,0,,5,1.41,38.900000000000006,-1528.0635986328125,9.83736801147461,,,I,885450504602079,
Raw,1734163336418,855351740000000,18,,-1417343202678606531,0.6614742279052734,65.76693704118952,-8.129433492848262,10.688118096389418,206,24,0.0,16399,547340345258686,6,42.8,122.10553741455078,0.03984079137444496,16,0.0,0.0,1561097980,,,,0,,5,1.41,38.5,-1528.0635986328125,9.83736801147461,,,I,885450504602079,
Raw,1734163336418,855351740000000,18,,-1417343202678606531,0.6614742279052734,65.76693704118952,-8.129433492848262,10.688118096389418,206,16,0.0,16399,547340299262333,9,39.9,1.719006896018982,0.020357903093099594,16,0.0,0.0,1561097980,,,,0,,5,1.41,35.6,-1528.0635986328125,9.83736801147461,,,I,885450504602079,
Raw,1734163336418,855351740000000,18,,-1417343202678606531,0.6614742279052734,65.76693704118952,-8.129433492848262,10.688118096389418,206,12,0.0,16399,547340345228931,5,44.7,28.810842514038086,0.039034225046634674,16,0.0,0.0,1561097980,,,,0,,5,1.41,40.400000000000006,-1528.0635986328125,9.83736801147461,,,I,885450504602079,
Raw,1734163336418,855351740000000,18,,-1417343202678606531,0.6614742279052734,65.76693704118952,-8.129433492848262,10.688118096389418,206,11,0.0,16399,547340341185750,14,34.9,-528.2499389648438,0.05158277228474617,16,0.0,0.0,1561097980,,,,0,,5,1.41,30.599999999999998,-1528.0635986328125,9.83736801147461,,,I,885450504602079,
Raw,1734163336418,855351740000000,18,,-1417343202678606531,0.6614742279052734,65.76693704118952,-8.129433492848262,10.688118096389418,206,9,0.0,16399,547340297531543,46,25.0,-91.85249328613281,0.7879999876022339,16,0.0,0.0,1561097980,,,,0,,5,1.41,20.7,-1528.0635986328125,9.83736801147461,,,I,885450504602079,
Raw,1734163336418,855351740000000,18,,-1417343202678606531,0.6614742279052734,65.76693704118952,-8.129433492848262,10.688118096389418,206,6,0.0,16399,547340300046446,16,33.3,0.2699870467185974,0.6341558694839478,16,0.0,0.0,1561097980,,,,0,,5,1.41,28.999999999999996,-1528.0635986328125,9.83736801147461,,,I,885450504602079,
Raw,1734163336418,855351740000000,18,,-1417343202678606531,0.6614742279052734,65.76693704118952,-8.129433492848262,10.688118096389418,206,1,0.0,16399,547340293277621,16,33.7,-1.4210922718048096,1.6574000120162964,16,0.0,0.0,1561097980,,,,0,,5,1.41,29.400000000000002,-1528.0635986328125,9.83736801147461,,,I,885450504602079,
Raw,1734163336418,855351740000000,18,,-1417343202678606531,0.6614742279052734,65.76693704118952,-8.129433492848262,10.688118096389418,206,3,0.0,23567,547354326540769,13,36.1,551.953125,0.02489195019006729,16,0.0,0.0,1575420030,,,,0,,6,1.45,31.8,-1467.84619140625,10.54811954498291,,,C,885450504602079,
Raw,1734163336418,855351740000000,18,,-1417343202678606531,0.6614742279052734,65.76693704118952,-8.129433492848262,10.688118096389418,206,8,0.0,23567,547354334297081,24,29.8,392.0960998535156,0.04489181935787201,16,0.0,0.0,1575420030,,,,0,,6,1.45,25.5,-1467.84619140625,10.54811954498291,,,C,885450504602079,
Raw,1734163336418,855351740000000,18,,-1417343202678606531,0.6614742279052734,65.76693704118952,-8.129433492848262,10.688118096389418,206,25,0.0,23567,547354327711189,21,31.1,299.4649963378906,0.040105484426021576,16,0.0,0.0,1575420030,,,,0,,6,1.45,26.8,-1467.84619140625,10.54811954498291,,,C,885450504602079,
Raw,1734163336418,855351740000000,18,,-1417343202678606531,0.6614742279052734,65.76693704118952,-8.129433492848262,10.688118096389418,206,34,0.0,23567,547354332029488,46,24.9,-521.4949340820312,1.7763863801956177,16,0.0,0.0,1575420030,,,,0,,6,1.45,20.599999999999998,-1467.84619140625,10.54811954498291,,,C,885450504602079,
Raw,1734163336418,855351740000000,18,,-1417343202678606531,0.6614742279052734,65.76693704118952,-8.129433492848262,10.688118096389418,206,36,0.0,23567,547354333978414,21,30.8,-148.13087463378906,0.037105485796928406,16,0.0,0.0,1575420030,,,,0,,6,1.45,26.5,-1467.84619140625,10.54811954498291,,,C,885450504602079,
Fix,GPS,31.0279124100,121.4326608100,25.100341796875,0.0,5.76146,,1734163337000,0.086023256,,885451085197079,5.560244,0,,,
Status,1734163337000,59,0,1,2,1575420030,32.40,185.0,11.0,1,1,0,28.800001
Status,1734163337000,59,1,1,4,1575420030,34.50,226.0,34.0,1,1,1,30.9
Status,1734163337000,59,2,1,8,1575420030,32.20,257.0,73.0,1,1,1,28.6
Status,1734163337000,59,3,1,16,1575420030,29.80,54.0,40.0,1,1,1,26.199999
Status,1734163337000,59,4,1,26,1575420030,33.30,82.0,20.0,1,1,1,29.699999
Status,1734163337000,59,5,1,27,1575420030,25.20,30.0,65.0,1,1,1,21.6
Status,1734163337000,59,6,1,31,1575420030,26.10,135.0,18.0,1,1,1,22.5
Status,1734163337000,59,7,1,7,1575420030,0.00,317.0,30.0,0,1,1,0.0
Status,1734163337000,59,8,1,9,1575420030,0.00,261.0,33.0,0,1,1,0.0
Status,1734163337000,59,9,1,18,1575420030,0.00,0.0,0.0,0,1,1,0.0
Status,1734163337000,59,10,4,194,1575420030,38.80,54.0,68.0,1,1,1,35.2
Status,1734163337000,59,11,4,195,1575420030,26.60,139.0,44.0,1,1,1,23.0
Status,1734163337000,59,12,4,196,1575420030,27.70,174.0,16.0,1,1,0,24.1
Status,1734163337000,59,13,3,14,1598062460,21.60,71.0,41.0,1,1,1,17.6
Status,1734163337000,59,14,3,18,1600312450,30.30,183.0,24.0,1,1,1,26.3
Status,1734163337000,59,15,3,16,1601437440,24.10,309.0,8.0,1,1,0,20.1
Status,1734163337000,59,16,3,15,1602000000,19.50,351.0,46.0,0,1,1,15.5
Status,1734163337000,59,17,3,24,1603124990,22.90,41.0,38.0,1,1,1,18.9
Status,1734163337000,59,18,3,17,1604249980,27.50,136.0,64.0,1,1,1,23.5
Status,1734163337000,59,19,3,4,1605374980,19.00,213.0,4.0,0,1,1,15.0
Status,1734163337000,59,20,3,6,1599750020,0.00,319.0,7.0,0,1,0,0.0
Status,1734163337000,59,21,3,5,1602562560,0.00,258.0,18.0,0,1,1,0.0
Status,1734163337000,59,22,5,60,1561097980,27.90,237.0,30.0,1,1,1,23.599998
Status,1734163337000,59,23,5,59,1561097980,35.90,148.0,46.0,1,1,1,31.600002
Status,1734163337000,59,24,5,44,1561097980,24.80,53.0,47.0,1,1,1,20.5
Status,1734163337000,59,25,5,43,1561097980,30.60,205.0,21.0,1,1,1,26.3
Status,1734163337000,59,26,5,39,1561097980,28.50,159.0,73.0,1,1,1,24.2
Status,1734163337000,59,27,5,34,1561097980,43.70,173.0,64.0,1,1,1,39.4
Status,1734163337000,59,28,5,26,1561097980,41.10,111.0,15.0,1,1,1,36.8
Status,1734163337000,59,29,5,24,1561097980,42.60,78.0,59.0,1,1,1,38.3
Status,1734163337000,59,30,5,16,1561097980,40.10,158.0,84.0,1,1,1,35.8
Status,1734163337000,59,31,5,12,1561097980,45.30,87.0,67.0,1,1,1,41.0
Status,1734163337000,59,32,5,11,1561097980,31.60,191.0,40.0,1,1,1,27.3
Status,1734163337000,59,33,5,9,1561097980,26.20,316.0,75.0,1,1,1,21.900002
Status,1734163337000,59,34,5,6,1561097980,31.40,211.0,87.0,1,1,1,27.099998
Status,1734163337000,59,35,5,4,1561097980,22.60,124.0,33.0,1,1,0,18.3
Status,1734163337000,59,36,5,3,1561097980,25.70,199.0,50.0,1,1,0,21.400002
Status,1734163337000,59,37,5,2,1561097980,24.50,234.0,34.0,1,1,0,20.2
Status,1734163337000,59,38,5,1,1561097980,32.90,141.0,44.0,1,1,0,28.600002
Status,1734163337000,59,39,5,5,1561097980,0.00,254.0,14.0,0,1,0,0.0
Status,1734163337000,59,40,5,7,1561097980,0.00,256.0,62.0,0,1,1,0.0
Status,1734163337000,59,41,5,10,1561097980,0.00,250.0,49.0,0,1,0,0.0
Status,1734163337000,59,42,5,14,1561097980,0.00,0.0,0.0,0,1,0,0.0
Status,1734163337000,59,43,5,23,1561097980,0.00,303.0,3.0,0,1,0,0.0
Status,1734163337000,59,44,5,25,1561097980,0.00,325.0,49.0,0,1,0,0.0
Status,1734163337000,59,45,5,33,1561097980,0.00,225.0,5.0,1,1,1,0.0
Status,1734163337000,59,46,5,35,1561097980,0.00,37.0,4.0,0,1,0,0.0
Status,1734163337000,59,47,5,41,1561097980,0.00,271.0,7.0,0,1,1,0.0
Status,1734163337000,59,48,5,56,1561097980,0.00,244.0,50.0,0,1,0,0.0
Status,1734163337000,59,49,6,2,1575420030,25.70,31.0,54.0,1,1,1,21.400002
Status,1734163337000,59,50,6,3,1575420030,34.10,180.0,12.0,1,1,1,29.8
Status,1734163337000,59,51,6,8,1575420030,30.40,228.0,39.0,1,1,1,26.099998
Status,1734163337000,59,52,6,25,1575420030,31.00,75.0,15.0,1,1,1,26.7
Status,1734163337000,59,53,6,34,1575420030,30.00,151.0,29.0,1,1,1,25.7
Status,1734163337000,59,54,6,36,1575420030,31.10,87.0,37.0,1,1,1,26.8
Status,1734163337000,59,55,6,7,1575420030,0.00,293.0,29.0,0,1,1,0.0
Status,1734163337000,59,56,6,11,1575420030,0.00,41.0,12.0,0,1,1,0.0
Status,1734163337000,59,57,6,27,1575420030,0.00,0.0,0.0,0,1,0,0.0
Status,1734163337000,59,58,6,30,1575420030,0.00,303.0,42.0,0,1,1,0.0
Raw,1734163337418,855352740000000,18,,-1417343202678606535,0.7275676727294922,65.28024096041918,-8.470420402031623,10.695618370527425,206,2,0.0,16399,547355337969567,17,32.4,-689.0679931640625,0.03379437327384949,16,0.0,0.0,1575420030,,,,0,,1,1.37,28.799999999999997,0.0,0.0,,,C,885451506171974,
Raw,1734163337418,855352740000000,18,,-1417343202678606535,0.7275676727294922,65.28024096041918,-8.470420402031623,10.695618370527425,206,4,0.0,16399,547355344672280,14,34.5,457.6596984863281,0.046995654702186584,16,0.0,0.0,1575420030,,,,0,,1,1.37,30.9,0.0,0.0,,,C,885451506171974,
Raw,1734163337418,855352740000000,18,,-1417343202678606535,0.7275676727294922,65.28024096041918,-8.470420402031623,10.695618370527425,206,8,0.0,16399,547355351888095,17,32.2,-118.1675033569336,0.042794376611709595,16,0.0,0.0,1575420030,,,,0,,1,1.37,28.6,0.0,0.0,,,C,885451506171974,
Raw,1734163337418,855352740000000,18,,-1417343202678606535,0.7275676727294922,65.28024096041918,-8.470420402031623,10.695618370527425,206,16,0.0,16399,547355345699076,21,29.8,340.939697265625,0.08009104430675507,16,0.0,0.0,1575420030,,,,0,,1,1.37,26.2,0.0,0.0,,,C,885451506171974,
Raw,1734163337418,855352740000000,18,,-1417343202678606535,0.7275676727294922,65.28024096041918,-8.470420402031623,10.695618370527425,206,26,0.0,16399,547355339265467,16,33.3,432.97198486328125,0.02940523251891136,16,0.0,0.0,1575420030,,,,0,,1,1.37,29.699999999999996,0.0,0.0,,,C,885451506171974,
Raw,1734163337418,855352740000000,18,,-1417343202678606535,0.7275676727294922,65.28024096041918,-8.470420402031623,10.695618370527425,206,27,0.0,16399,547355350818315,40,25.2,310.1120910644531,0.7985000014305115,16,0.0,0.0,1575420030,,,,0,,1,1.37,21.599999999999998,0.0,0.0,,,C,885451506171974,
Raw,1734163337418,855352740000000,18,,-1417343202678606535,0.7275676727294922,65.28024096041918,-8.470420402031623,10.695618370527425,206,31,0.0,16399,547355337996525,35,26.1,614.78173828125,0.7279999852180481,16,0.0,0.0,1575420030,,,,0,,1,1.37,22.5,0.0,0.0,,,C,885451506171974,
Raw,1734163337418,855352740000000,18,,-1417343202678606535,0.7275676727294922,65.28024096041918,-8.470420402031623,10.695618370527425,206,194,0.0,16399,547355287354539,9,38.8,-4.743500709533691,0.03830919414758682,16,0.0,0.0,1575420030,,,,0,,4,1.37,35.199999999999996,0.0,0.0,,,C,885451506171974,
Raw,1734163337418,855352740000000,18,,-1417343202678606535,0.7275676727294922,65.28024096041918,-8.470420402031623,10.695618370527425,206,196,0.0,16399,547355295419903,27,27.7,55.24225616455078,0.6710000038146973,16,0.0,0.0,1575420030,,,,0,,4,1.37,24.099999999999998,0.0,0.0,,,C,885451506171974,
Raw,1734163337418,855352740000000,18,,-1417343202678606535,0.7275676727294922,65.28024096041918,-8.470420402031623,10.695618370527425,206,14,0.0,49359,39737349061287,70,21.6,183.62977600097656,1.0899999141693115,16,0.0,0.0,1598062460,,,,0,,3,0.13,17.6,3806.623291015625,10.620762825012207,,,C,885451506171974,
Raw,1734163337418,855352740000000,18,,-1417343202678606535,0.7275676727294922,65.28024096041918,-8.470420402031623,10.695618370527425,206,18,0.0,49359,39737344815876,21,30.3,-806.6460571289062,0.6429063677787781,16,0.0,0.0,1600312450,,,,0,,3,0.13,26.3,3806.623291015625,10.620762825012207,,,C,885451506171974,
Raw,1734163337418,855352740000000,18,,-1417343202678606535,0.7275676727294922,65.28024096041918,-8.470420402031623,10.695618370527425,206,24,0.0,49359,39737348118957,61,22.9,478.6207275390625,1.0115000009536743,16,0.0,0.0,1603124990,,,,0,,3,0.13,18.9,3806.623291015625,10.620762825012207,,,C,885451506171974,
Raw,1734163337418,855352740000000,18,,-1417343202678606535,0.7275676727294922,65.28024096041918,-8.470420402031623,10.695618370527425,206,17,0.0,49359,39737353229167,31,27.5,-308.0242614746094,0.6739999651908875,16,0.0,0.0,1604249980,,,,0,,3,0.13,23.5,3806.623291015625,10.620762825012207,,,C,885451506171974,
Raw,1734163337418,855352740000000,18,,-1417343202678606535,0.7275676727294922,65.28024096041918,-8.470420402031623,10.695618370527425,206,60,0.0,16399,547341290160901,31,27.9,1.9588027000427246,7.616100311279297,16,0.0,0.0,1561097980,,,,0,,5,1.39,23.599999999999998,-1528.9208984375,9.73041820526123,,,I,885451506171974,
Raw,1734163337418,855352740000000,18,,-1417343202678606535,0.7275676727294922,65.28024096041918,-8.470420402031623,10.695618370527425,206,59,0.0,16399,547341294105668,13,35.9,3.0150198936462402,1.3622000217437744,16,0.0,0.0,1561097980,,,,0,,5,1.39,31.599999999999998,-1528.9208984375,9.73041820526123,,,I,885451506171974,
Raw,1734163337418,855352740000000,18,,-1417343202678606535,0.7275676727294922,65.28024096041918,-8.470420402031623,10.695618370527425,206,44,0.0,16399,547341342993930,46,24.8,319.5057067871094,0.8704999685287476,16,0.0,0.0,1561097980,,,,0,,5,1.39,20.5,-1528.9208984375,9.73041820526123,,,I,885451506171974,
Raw,1734163337418,855352740000000,18,,-1417343202678606535,0.7275676727294922,65.28024096041918,-8.470420402031623,10.695618370527425,206,43,0.0,16399,547341335578741,21,30.6,-618.1659545898438,0.0654955506324768,16,0.0,0.0,1561097980,,,,0,,5,1.39,26.3,-1528.9208984375,9.73041820526123,,,I,885451506171974,
Raw,1734163337418,855352740000000,18,,-1417343202678606535,0.7275676727294922,65.28024096041918,-8.470420402031623,10.695618370527425,206,34,0.0,16399,547341345867433,6,43.7,-291.00140380859375,0.03932228684425354,16,0.0,0.0,1561097980,,,,0,,5,1.39,39.400000000000006,-1528.9208984375,9.73041820526123,,,I,885451506171974,
Raw,1734163337418,855352740000000,18,,-1417343202678606535,0.7275676727294922,65.28024096041918,-8.470420402031623,10.695618370527425,206,26,0.0,16399,547341332955665,8,41.1,434.9480285644531,0.03024337626993656,16,0.0,0.0,1561097980,,,,0,,5,1.39,36.800000000000004,-1528.9208984375,9.73041820526123,,,I,885451506171974,
Raw,1734163337418,855352740000000,18,,-1417343202678606535,0.7275676727294922,65.28024096041918,-8.470420402031623,10.695618370527425,206,24,0.0,16399,547341345258273,6,42.6,123.07173919677734,0.03984079137444496,16,0.0,0.0,1561097980,,,,0,,5,1.39,38.300000000000004,-1528.9208984375,9.73041820526123,,,I,885451506171974,
Raw,1734163337418,855352740000000,18,,-1417343202678606535,0.7275676727294922,65.28024096041918,-8.470420402031623,10.695618370527425,206,16,0.0,16399,547341299262313,9,40.1,2.6717677116394043,0.020357903093099594,16,0.0,0.0,1561097980,,,,0,,5,1.39,35.800000000000004,-1528.9208984375,9.73041820526123,,,I,885451506171974,
Raw,1734163337418,855352740000000,18,,-1417343202678606535,0.7275676727294922,65.28024096041918,-8.470420402031623,10.695618370527425,206,12,0.0,16399,547341345228839,5,45.3,29.836231231689453,0.038726963102817535,16,0.0,0.0,1561097980,,,,0,,5,1.39,41.0,-1528.9208984375,9.73041820526123,,,I,885451506171974,
Raw,1734163337418,855352740000000,18,,-1417343202678606535,0.7275676727294922,65.28024096041918,-8.470420402031623,10.695618370527425,206,11,0.0,16399,547341341187492,19,31.6,-527.237060546875,0.06794454157352448,16,0.0,0.0,1561097980,,,,0,,5,1.39,27.3,-1528.9208984375,9.73041820526123,,,I,885451506171974,
Raw,1734163337418,855352740000000,18,,-1417343202678606535,0.7275676727294922,65.28024096041918,-8.470420402031623,10.695618370527425,206,9,0.0,16399,547341297531805,40,26.2,-90.54661560058594,0.7279999852180481,16,0.0,0.0,1561097980,,,,0,,5,1.39,21.9,-1528.9208984375,9.73041820526123,,,I,885451506171974,
Raw,1734163337418,855352740000000,18,,-1417343202678606535,0.7275676727294922,65.28024096041918,-8.470420402031623,10.695618370527425,206,6,0.0,16399,547341300046431,19,31.4,1.3430047035217285,0.06944453716278076,16,0.0,0.0,1561097980,,,,0,,5,1.39,27.099999999999998,-1528.9208984375,9.73041820526123,,,I,885451506171974,
Raw,1734163337418,855352740000000,18,,-1417343202678606535,0.7275676727294922,65.28024096041918,-8.470420402031623,10.695618370527425,206,4,0.0,16399,547341290190985,61,22.6,-6.46212911605835,10.586799621582031,16,0.0,0.0,1561097980,,,,0,,5,1.39,18.3,-1528.9208984375,9.73041820526123,,,I,885451506171974,
Raw,1734163337418,855352740000000,18,,-1417343202678606535,0.7275676727294922,65.28024096041918,-8.470420402031623,10.695618370527425,206,1,0.0,16399,547341293277615,17,32.9,2.87099027633667,1.8282999992370605,16,0.0,0.0,1561097980,,,,0,,5,1.39,28.599999999999998,-1528.9208984375,9.73041820526123,,,I,885451506171974,
Raw,1734163337418,855352740000000,18,,-1417343202678606535,0.7275676727294922,65.28024096041918,-8.470420402031623,10.695618370527425,206,3,0.0,23567,547355326538929,16,34.1,552.8598022460938,0.02730868011713028,16,0.0,0.0,1575420030,,,,0,,6,1.43,29.8,-1467.8470458984375,10.58221435546875,,,C,885451506171974,
Raw,1734163337418,855352740000000,18,,-1417343202678606535,0.7275676727294922,65.28024096041918,-8.470420402031623,10.695618370527425,206,8,0.0,23567,547355334295769,21,30.4,393.081298828125,0.03560548275709152,16,0.0,0.0,1575420030,,,,0,,6,1.43,26.099999999999998,-1467.8470458984375,10.58221435546875,,,C,885451506171974,
Raw,1734163337418,855352740000000,18,,-1417343202678606535,0.7275676727294922,65.28024096041918,-8.470420402031623,10.695618370527425,206,25,0.0,23567,547355327710201,21,31.0,300.3936462402344,0.040105484426021576,16,0.0,0.0,1575420030,,,,0,,6,1.43,26.7,-1467.8470458984375,10.58221435546875,,,C,885451506171974,
Raw,1734163337418,855352740000000,18,,-1417343202678606535,0.7275676727294922,65.28024096041918,-8.470420402031623,10.695618370527425,206,34,0.0,23567,547355332031272,24,30.0,-520.4782104492188,0.6007710695266724,16,0.0,0.0,1575420030,,,,0,,6,1.43,25.7,-1467.8470458984375,10.58221435546875,,,C,885451506171974,
Raw,1734163337418,855352740000000,18,,-1417343202678606535,0.7275676727294922,65.28024096041918,-8.470420402031623,10.695618370527425,206,36,0.0,23567,547355333978905,21,31.1,-147.0875244140625,0.037105485796928406,16,0.0,0.0,1575420030,,,,0,,6,1.43,26.8,-1467.8470458984375,10.58221435546875,,,C,885451506171974,
Fix,GPS,31.0279097400,121.4326647300,24.75537109375,0.0,5.546142,,1734163338000,0.086023256,,885452084908016,5.275331,0,,,
Status,1734163338000,59,0,1,2,1575420030,34.80,185.0,11.0,1,1,0,31.199999
Status,1734163338000,59,1,1,4,1575420030,39.30,226.0,34.0,1,1,1,35.7
