     4.01           OBSERVATION DATA    M                   RINEX VERSION / TYPE
GnssLogger          HUAWEI 12           20241228 061619 UTC PGM / RUN BY / DATE
Google GnssLogger                                           MARKER NAME
Unknown                                                     MARKER NUMBER
Unknown             Unknown                                 OBSERVER / AGENCY
Unknown             GnssLogger          v3.1.0.3            REC # / TYPE / VERS
Unknown             Unknown                                 ANT # / TYPE
        0.0000        0.0000        0.0000                  ANTENNA: DELTA H/E/N
G    6 C1C D1C S1C C5Q D5Q S5Q                              SYS / # / OBS TYPES
R    3 C1C D1C S1C                                          SYS / # / OBS TYPES
J    6 C1C D1C S1C C5Q D5Q S5Q                              SYS / # / OBS TYPES
C    6 C5P D5P S5P C2I D2I S2I                              SYS / # / OBS TYPES
E    3 C1A D1A S1A                                          SYS / # / OBS TYPES
  2024    12    28    06    16   19.0000000     GPS         TIME OF FIRST OBS
 10 R02 -4 R03  5 R04  6 R11  0 R12 -1 R13 -2 R17  4 R21  4 GLONASS SLOT / FRQ #
    R22 -3 R23  3                                           GLONASS SLOT / FRQ #
HUAWEI HBN-AL00 (Android 12) HW Year: 2018 HW Model:        COMMENT
Hisilicon Corporation Hi110x V100                           COMMENT
                                                            END OF HEADER
> 2024 12 28 06 16 19.0000156  0 48                      
G31  22586806.27914     -2065.47214        25.00014                                                
G08  20823050.202 6      2709.138 6        36.000 6  20823064.89212      2022.70112        17.00012
J02  39290429.30214       198.79414        26.00014  39290437.09612       146.10412        17.00012
G09  22119500.289 7      1063.717 7        42.000 7  22119513.47914       795.29114        29.00014
R02  22081924.90126     -2823.52726        40.00026
G27  19858789.346 5       539.153 5        33.000 5  19858796.24113       402.80613        19.00013
E03  25256469.210 5      1129.547 5        33.000 5
G04  21194300.29126      -467.01226        40.00026  21194317.37912      -348.11412        17.00012
J03  37214979.60613       581.60113        22.00013  37214987.70012       433.30812        15.00012
E05  23022783.95816     -1448.11516        39.00016
J04  36734475.25214       141.43414        27.00014                                                
R03  21964307.02726       167.86826        36.00026
R13  21174806.28725      2098.35025        32.00025
R23  20929608.13424      3837.11424        25.00024
R21  23550948.11824     -2983.80624        26.00024
G07  24969853.53015      3563.28615        32.00015                                                
R22  20456139.30925       401.84325        30.00025
G16  20953495.59715      -941.45115        31.00015                                                
G18  24877223.65615      -684.92915        33.00015                                                
E09  27643347.50914     -2618.44614        25.00014
G26  22534008.63013     -1637.05413        22.00013  22534016.42512     -1220.20512        17.00012
R12  20555575.07125       154.26125        32.00025
C24  21828570.89524       363.37524        25.00024  21828554.706 5       482.205 5        35.000 5
G28  24811874.29713     -2692.86813        20.00013                                                
C06                                                  35619365.72614       747.34214        29.00014
C25  23687275.44023      1833.14123        20.00023  23687261.65014      2432.20314        27.00014
R11  23695165.97823     -1670.12823        18.00023
C07                                                  36671498.75015       769.81315        31.00015
C09                                                  36667449.15315      1110.35915        35.00015
E11  26707774.39313      3112.23813        23.00013
C10                                                  37692884.459 6       823.420 6        39.000 6
C11                                                  24975149.96315      3775.73515        35.00015
C44                                                  22115696.22214       278.79214        26.00014
C12                                                  22369593.45313      1903.34713        22.00013
C14                                                  25939803.54815     -2175.78015        30.00015
C16                                                  35891558.69114       775.45314        28.00014
E12  26587310.88813      1597.73813        22.00013
E24  24767284.66626      -594.00926        36.00026
C26                                                  24507225.50114     -1319.73214        25.00014
C33  25493839.18222     -1354.39222        17.00022  25493780.423 6     -1797.074 6        37.000 6
C35  25005064.45423     -1516.09223        20.00023  25005043.16925     -2011.18125        33.00025
E25  24390077.101 6      1054.072 6        36.000 6
C34                                                  23033865.18714      3141.39514        27.00014
E31  28024079.73314     -1353.00414        26.00014
C39                                                  35783237.08015       444.98615        30.00015
E33  28318772.72213      -656.36213        19.00013
C40                                                  36342174.03616       782.17716        37.00016
C41                                                  25989499.544 6       -41.012 6        37.000 6
> 2024 12 28 06 16 20.0000161  0 48                      
G31  22587348.60414     -2064.57614        24.00014                                                
G08  20822687.154 5      2708.148 5        35.000 5  20822699.14512      2022.67912        17.00012
J02  39290544.12213       197.24313        23.00013  39290548.31912       146.90412        17.00012
G09  22119446.926 7      1063.684 7        42.000 7  22119459.81714       794.64214        27.00014
R02  22082601.83326     -2823.43026        41.00026
G27  19858834.315 6       538.300 6        36.000 6  19858843.00913       402.21113        19.00013
E03  25256402.956 5      1128.163 5        32.000 5
G04  21194540.12527      -467.16827        43.00027  21194555.71413      -348.51413        19.00013
J03  37215023.67514       583.29714        24.00014  37215027.27312       433.88212        15.00012
E05  23023209.06416     -1448.18116        40.00016
J04  36734596.66814       141.67114        29.00014  36734614.35621       106.15821        12.00021
R03  21964426.34426       165.55126        37.00026
R13  21174562.85525      2097.85625        34.00025
R23  20929043.92423      3835.88923        22.00023
R21  23551655.32824     -2984.37024        26.00024
G07  24969325.59614      3563.60014        29.00014                                                
R22  20456215.75725       400.72225        31.00025
G16  20953823.57015      -941.22015        32.00015                                                
G18  24877505.16215      -684.45515        33.00015                                                
E09  27643995.36014     -2618.57714        25.00014
G26  22534472.70914     -1636.58414        25.00014  22534477.50613     -1221.78513        18.00013
R12  20555694.08925       154.16725        33.00025
C24  21828628.45524       363.31724        26.00024  21828616.163 5       481.971 5        35.000 5
G28  24812535.63913     -2690.51613        19.00013                                                
C06                                                  35619372.02215       746.86815        30.00015
C25  23686958.26023      1832.97523        20.00023  23686944.47015      2431.17215        31.00015
R11  23695626.75923     -1661.82223        18.00023
C07                                                  36671500.54814       770.23414        29.00014
C09                                                  36667386.49725      1110.90725        35.00025
E11  26707330.99914      3112.66114        25.00014
C10                                                  37692878.163 6       823.537 6        39.000 6
C11                                                  24974575.86125      3774.83425        35.00025
C44                                                  22115793.35514       277.87314        28.00014
C12                                                  22369378.20213      1902.94513        23.00013
C14                                                  25940371.35514     -2175.29514        26.00014
C16                                                  35891559.29115       775.05215        30.00015
E12  26587176.28113      1598.48213        20.00013
E24  24767549.982 6      -593.073 6        36.000 6
C26                                                  24507629.32114     -1319.59214        25.00014
C33  25494334.14022     -1353.65422        17.00022  25494275.380 5     -1797.431 5        34.000 5
C35  25005599.28423     -1516.29123        21.00023  25005583.994 5     -2010.324 5        35.000 5
E25  24390027.935 6      1054.091 6        38.000 6
C34                                                  23033414.89914      3142.21514        24.00014
E31  28024489.25013     -1353.59913        23.00013
C39                                                  35783303.33515       444.03215        31.00015
E33  28319050.92913      -657.23013        18.00013
C40                                                  36342173.73716       782.41116        36.00016
C41                                                  25989657.834 6       -40.341 6        37.000 6
> 2024 12 28 06 16 21.0000163  0 48                      
G31  22587802.49014     -2062.98314        24.00014                                                
G08  20822228.771 6      2709.158 6        37.000 6  20822243.46112      2022.15012        17.00012
J02  39290567.50614       196.31414        25.00014  39290570.20412       148.89712        17.00012
G09  22119304.524 7      1062.272 7        42.000 7  22119316.81614       793.92014        28.00014
R02  22083188.52726     -2822.02426        41.00026
G27  19858791.145 5       538.324 5        32.000 5  19858800.43913       402.22313        19.00013
E03  25256251.861 5      1127.334 5        33.000 5
G04  21194687.623 7      -467.430 7        42.000 7  21194703.51213      -348.37613        20.00013
J03  37214973.31014       583.66814        28.00014  37214976.60812       433.45812        15.00012
E05  23023545.43116     -1447.74016        37.00016
J04  36734626.94714       142.61314        27.00014  36734648.23221       104.58421        12.00021
R03  21964454.82426       165.54426        36.00026
R13  21174230.38525      2098.52525        30.00025
R23  20928387.37923      3834.94923        23.00023
R21  23552273.20124     -2983.11124        29.00024
G07  24968706.82414      3564.24514        28.00014                                                
R22  20456201.36625       400.37925        32.00025
G16  20954062.50415      -940.80315        34.00015                                                
G18  24877695.53025      -684.66425        32.00025                                                
E09  27644554.17313     -2617.37313        23.00013
G26  22534840.55513     -1635.62913        21.00013  22534848.64912     -1220.05212        17.00012
R12  20555724.96825       154.51725        33.00025
C24  21828595.47823       362.76023        22.00023  21828581.088 6       481.307 6        36.000 6
G28  24813109.14213     -2687.85513        19.00013                                                
C06                                                  35619290.77815       747.31415        32.00015
C25  23686550.84223      1833.68723        20.00023  23686536.15215      2431.16715        32.00015
R11  23695996.40323     -1657.75823        19.00023
C07                                                  36671412.40915       771.15115        31.00015
C09                                                  36667230.904 5      1110.533 5        32.000 5
E11  26706797.96814      3113.30414        24.00014
C10                                                  37692780.731 6       824.540 6        40.000 6
C11                                                  24973910.32225      3777.27925        34.00025
C44                                                  22115800.85014       276.87914        27.00014
C12                                                  22369073.31314      1901.67714        25.00014
C14                                                  25940850.12315     -2175.21015        31.00015
C16                                                  35891470.85215       774.35515        31.00015
E12  26586924.15513      1598.79913        22.00013
E24  24767723.862 5      -593.696 5        34.000 5
C26                                                  24507941.70515     -1320.29315        30.00015
C33  25494738.86022     -1352.94422        17.00022  25494679.800 6     -1796.758 6        37.000 6
C35  25006045.67523     -1516.29323        22.00023  25006024.390 5     -2011.816 5        33.000 5
E25  24389881.037 5      1053.598 5        34.000 5
C34                                                  23032872.57414      3141.70214        26.00014
E31  28024806.43013     -1352.67913        23.00013
C39                                                  35783277.85215       443.83615        30.00015
E33  28319237.70013      -656.03513        18.00013
C40                                                  36342083.79915       784.93515        33.00015
C41                                                  25989726.487 6       -42.047 6        39.000 6
> 2024 12 28 06 16 22.0000166  0 48                      
G31  22588288.15413     -2061.98113        23.00013                                                
G08  20821804.565 6      2708.827 6        39.000 6  20821818.65512      2020.69912        17.00012
J02  39290621.16913       196.13513        23.00013  39290622.06812       149.19812        17.00012
G09  22119193.901 7      1061.599 7        42.000 7  22119204.39314       793.07914        27.00014
R02  22083814.49326     -2822.46226        38.00026
G27  19858777.654 5       536.645 5        33.000 5  19858787.54713       402.32713        18.00013
E03  25256126.547 6      1127.390 6        36.000 6
G04  21194863.901 6      -467.558 6        39.000 6  21194882.48813      -348.33813        19.00013
J03  37214948.42714       584.35714        25.00014  37214955.02312       436.03312        16.00012
E05  23023908.48025     -1447.81325        34.00025
J04  36734689.30414       143.27214        26.00014  36734709.39012       109.31112        13.00012
R03  21964515.98225       164.99725        31.00025
R13  21173926.99525      2098.46725        30.00025
R23  20927762.31224      3834.23324        24.00024
R21  23552920.45224     -2983.57224        29.00024
G07  24968116.53314      3564.21114        26.00014                                                
R22  20456216.95625       399.82125        30.00025
G16  20954330.81915      -942.00215        34.00015                                                
G18  24877911.680 5      -687.705 5        33.000 5                                                
E09  27645142.06613     -2614.89713        23.00013
G26  22535243.77514     -1635.80214        27.00014  22535249.47113     -1220.38913        18.00013
R12  20555784.32726       153.85726        36.00026
C24  21828592.78023       362.18723        22.00023  21828580.188 5       479.960 5        34.000 5
G28  24813715.92212     -2686.78912        17.00012                                                
C06                                                  35619237.41515       747.78815        31.00015
C25  23686174.60323      1832.42123        21.00023  23686159.61316      2431.05816        38.00016
R11  23696396.02623     -1658.27823        20.00023
C07                                                  36671354.55015       770.78815        33.00015
C09                                                  36667107.390 4      1109.502 4        29.000 4
E11  26706295.21713      3115.39613        23.00013
C10                                                  37692711.479 6       824.708 6        39.000 6
C11                                                  24973276.860 5      3778.006 5        32.000 5
C44                                                  22115839.22314       275.55114        26.00014
C12                                                  22368798.40313      1901.92113        21.00013
C14                                                  25941357.67215     -2173.52415        33.00015
C16                                                  35891413.59115       774.39115        33.00015
E12  26586704.40814      1599.33214        25.00014
E24  24767927.421 5      -595.590 5        31.000 5
C26                                                  24508285.26714     -1319.21614        28.00014
C33  25495173.55922     -1350.77022        16.00022  25495115.998 6     -1795.928 6        37.000 6
C35  25006521.74523     -1516.92623        21.00023  25006503.458 4     -2014.975 4        29.000 4
E25  24389774.311 5      1053.116 5        32.000 5
C34                                                  23032359.03014      3142.12614        27.00014
E31  28025153.59014     -1352.47614        25.00014
C39                                                  35783282.64914       443.51714        29.00014
E33  28319453.55013      -658.50413        18.00013
C40                                                  36342024.44015       782.39815        30.00015
C41                                                  25989823.320 6       -42.403 6        38.000 6
> 2024 12 28 06 16 23.0000168  0 48                      
G31  22588742.63914     -2062.55814        24.00014                                                
G08  20821346.782 6      2708.328 6        41.000 6  20821364.76912      2019.66512        17.00012
J02  39290641.85514       197.05014        26.00014  39290644.85312       146.76812        17.00012
G09  22119050.900 7      1058.741 7        43.000 7  22119062.89114       791.46514        25.00014
R02  22084402.38626     -2823.04626        39.00026
G27  19858743.478 5       536.166 5        32.000 5  19858745.87613       400.66813        19.00013
E03  25255972.154 6      1124.902 6        37.000 6
G04  21195020.393 6      -469.106 6        37.000 6  21195032.08513      -349.38413        20.00013
J03  37214894.16514       585.15314        27.00014  37214904.35812       436.40912        15.00012
E05  23024242.449 5     -1447.851 5        33.000 5
J04  36734722.28114       144.62514        28.00014  36734742.06712       109.57012        13.00012
R03  21964547.16024       163.03224        29.00024
R13  21173590.32824      2096.05024        28.00024
R23  20927105.46624      3835.09324        25.00024
R21  23553536.52624     -2985.53624        29.00024
G07  24967501.65813      3564.56613        23.00013                                                
R22  20456202.26625       398.98325        31.00025
G16  20954570.05316      -943.23216        38.00016                                                
G18  24878108.644 5      -688.285 5        30.000 5                                                
E09  27645699.08114     -2613.45914        26.00014
G26  22535617.61714     -1636.82214        29.00014  22535620.61413     -1221.95813        19.00013
R12  20555813.10726       152.69126        37.00026
C24  21828560.40224       361.66124        26.00024  21828548.710 6       479.517 6        36.000 6
G28  24814285.82713     -2688.89013        18.00013                                                
C06                                                  35619154.07315       746.49015        32.00015
C25  23685767.78423      1830.52323        21.00023  23685750.99616      2428.58316        36.00016
R11  23696770.76723     -1661.01223        20.00023
C07                                                  36671266.41115       770.61315        32.00015
C09                                                  36666952.997 5      1108.506 5        30.000 5
E11  26705761.28613      3116.43913        23.00013
C10                                                  37692613.147 6       824.326 6        40.000 6
C11                                                  24972608.623 5      3779.484 5        35.000 5
C44                                                  22115846.11814       274.07414        28.00014
C12                                                  22368495.01314      1900.34214        27.00014
C14                                                  25941848.13225     -2171.72525        33.00025
C16                                                  35891324.85315       774.04515        34.00015
E12  26586455.88013      1598.38113        22.00013
E24  24768093.206 4      -595.927 4        29.000 4
C26                                                  24508601.84814     -1318.58714        27.00014
C33  25495577.67922     -1353.37722        17.00022  25495521.318 6     -1796.823 6        39.000 6
C35  25006969.03623     -1518.12523        21.00023  25006945.052 5     -2014.683 5        34.000 5
E25  24389638.804 6      1051.087 6        37.000 6
C34                                                  23031816.40514      3143.30814        26.00014
E31  28025470.77014     -1353.05714        25.00014
C39                                                  35783257.46614       443.61414        26.00014
E33  28319636.12413      -660.27213        18.00013
C40                                                  36341936.00114       781.35514        27.00014
C41                                                  25989894.071 6       -45.283 6        36.000 6
> 2024 12 28 06 16 24.0000171  0 48                      
G31  22589224.40514     -2063.97214        29.00014                                                
G08  20820922.875 6      2708.799 6        40.000 6  20820939.06412      2019.48912        13.00012
J02  39290692.22013       198.07313        23.00013  39290697.01612       147.11012        17.00012
G09  22118939.976 7      1058.950 7        44.000 7  22118951.06914       790.46914        26.00014
R02  22085022.65726     -2822.60926        37.00026
G27  19858732.086 5       536.376 5        33.000 5  19858733.28513       400.34613        18.00013
E03  25255850.738 6      1125.178 6        39.000 6
G04  21195191.274 6      -468.853 6        36.000 6  21195211.96013      -349.48313        20.00013
J03  37214875.27815       585.13215        30.00015  37214882.77312       436.35512        16.00012
E05  23024614.491 5     -1447.553 5        33.000 5
J04  36734784.33814       146.48614        25.00014  36734804.12412       109.84212        14.00012
R03  21964610.11726       160.12226        36.00026
R13  21173289.33724      2096.86724        24.00024
R23  20926480.69924      3834.03424        24.00024
R21  23554185.57724     -2988.22524        28.00024
G07  24966913.76514      3562.38514        27.00014                                                
R22  20456212.45925       398.35725        33.00025
G16  20954839.26726      -943.32826        38.00026                                                
G18  24878331.390 5      -688.282 5        34.000 5                                                
E09  27646285.77514     -2612.78714        28.00014
G26  22536020.53814     -1636.40014        27.00014  22536022.03713     -1222.14913        19.00013
R12  20555874.86426       151.53826        40.00026
C24  21828558.30424       361.31324        26.00024  21828549.909 6       479.961 6        41.000 6
G28  24814889.31013     -2690.82913        19.00013                                                
C06                                                  35619102.80815       745.77315        35.00015
C25  23685391.24523      1830.48023        21.00023  23685374.15726      2429.24026        37.00026
R11  23697170.69023     -1666.60023        20.00023
C07                                                  36671206.45215       770.63015        34.00015
C09                                                  36666834.878 4      1108.990 4        28.000 4
E11  26705258.23414      3117.59414        26.00014
C10                                                  37692544.494 6       825.096 6        40.000 6
C11                                                  24971975.161 6      3780.137 6        36.000 6
C44                                                  22115880.59414       273.49914        27.00014
C12                                                  22368218.30513      1899.74613        23.00013
C14                                                  25942359.878 5     -2171.624 5        33.000 5
C16                                                  35891266.09415       776.06215        35.00015
E12  26586232.53413      1598.60713        23.00013
E24  24768300.362 5      -595.537 5        31.000 5
C26                                                  24508946.60914     -1319.31214        29.00014
C33  25496013.27723     -1354.31423        18.00023  25495953.319 6     -1796.188 6        40.000 6
C35  25007445.40623     -1518.18323        21.00023  25007423.221 5     -2014.338 5        34.000 5
E25  24389527.581 6      1051.824 6        36.000 6
C34                                                  23031303.46014      3143.83114        26.00014
E31  28025816.73114     -1352.62214        28.00014
C39                                                  35783263.46214       443.97314        25.00014
E33  28319852.27413      -660.59813        18.00013
C40                                                  36341877.24214       782.34714        26.00014
C41                                                  25989993.602 6       -45.131 6        37.000 6
> 2024 12 28 06 16 25.0000176  0 48                      
G31  22589767.92914     -2064.76714        26.00014                                                
G08  20820559.527 6      2708.510 6        41.000 6  20820574.81612      2022.40712        13.00012
J02  39290804.64214       198.69114        24.00014  39290808.23913       147.70913        18.00013
G09  22118887.813 7      1060.117 7        43.000 7  22118899.50514       791.35814        26.00014
R02  22085697.79026     -2822.50826        39.00026
G27  19858780.053 5       535.891 5        31.000 5  19858782.45113       400.29413        19.00013
E03  25255786.283 6      1126.680 6        39.000 6
G04  21195433.207 5      -468.681 5        34.000 5  21195451.49413      -349.59313        20.00013
J03  37214916.35014       585.34314        29.00014  37214921.74612       436.78912        15.00012
E05  23025039.897 5     -1447.775 5        34.000 5
J04  36734906.05413       146.41113        22.00013  36734927.33912       109.24812        14.00012
R03  21964730.93325       160.81225        35.00025
R13  21173048.60323      2095.39623        23.00023
R23  20925917.68923      3833.83923        21.00023
R21  23554894.58624     -2989.68524        29.00024
G07  24966382.83314      3560.66614        25.00014                                                
R22  20456293.40325       398.15525        31.00025
G16  20955167.539 6      -942.678 6        37.000 6                                                
G18  24878608.698 5      -688.323 5        35.000 5                                                
E09  27646934.22614     -2612.41814        25.00014
G26  22536478.92013     -1636.96013        23.00013  22536484.31713     -1221.51213        19.00013
R12  20555997.17926       152.17826        36.00026
C24  21828615.86424       361.82124        26.00024  21828606.870 6       480.464 6        39.000 6
G28  24815554.24913     -2692.29113        19.00013                                                
C06                                                  35619108.80416       747.40716        36.00016
C25  23685074.36423      1831.53623        20.00023  23685058.175 5      2430.997 5        35.000 5
R11  23697634.76923     -1672.43823        20.00023
C07                                                  36671208.85015       771.63215        35.00015
C09                                                  36666774.62014      1109.64314        28.00014
E11  26704818.43913      3117.17713        23.00013
C10                                                  37692536.400 6       825.535 6        40.000 6
C11                                                  24971397.761 5      3778.952 5        35.000 5
C44                                                  22115976.82814       274.60314        28.00014
C12                                                  22368002.75414      1899.31814        28.00014
C14                                                  25942927.085 5     -2171.011 5        31.000 5
C16                                                  35891266.69325       774.40825        34.00025
E12  26586073.94413      1597.98813        21.00013
E24  24768563.580 5      -594.557 5        33.000 5
C26                                                  24509353.12814     -1319.20014        28.00014
C33  25496507.93523     -1352.72623        18.00023  25496447.377 6     -1795.369 6        39.000 6
C35  25007982.63423     -1518.06723        21.00023  25007963.447 5     -2014.399 5        35.000 5
E25  24389471.520 5      1053.828 5        34.000 5
C34                                                  23030848.67514      3143.64114        29.00014
E31  28026224.74814     -1352.41314        26.00014
C39                                                  35783322.52114       444.35514        26.00014
E33  28320127.48412      -659.84712        17.00012
C40                                                  36341878.74115       781.67815        30.00015
C41                                                  25990151.293 6       -43.400 6        36.000 6
> 2024 12 28 06 16 26.0000179  0 48                      
G31  22590249.69614     -2066.09514        27.00014                                                
G08  20820133.222 6      2706.784 6        36.000 6  20820148.51112      2022.50412        13.00012
J02  39290860.40314       199.41914        25.00014  39290860.40313       147.40313        18.00013
G09  22118775.990 7      1058.767 7        43.000 7  22118787.98214       791.15514        28.00014
R02  22086319.25926     -2824.26126        39.00026
G27  19858763.86416       536.17416        36.00016  19858769.86013       398.71713        19.00013
E03  25255659.47115      1126.15515        30.00015
G04  21195613.082 6      -470.501 6        41.000 6  21195630.77013      -351.75313        19.00013
J03  37214893.86514       585.22014        28.00014  37214901.06012       436.16912        17.00012
E05  23025401.146 6     -1449.116 6        37.000 6
J04  36734969.91014       146.08014        25.00014  36734990.59512       109.20312        14.00012
R03  21964790.59225       160.82725        34.00025
R13  21172746.11325      2096.17025        31.00025
R23  20925289.02424      3831.80124        25.00024
R21  23555544.83624     -2989.17824        28.00024
G07  24965794.04014      3560.33414        24.00014                                                
R22  20456311.09125       396.99125        35.00025
G16  20955432.55615      -940.79115        32.00015                                                
G18  24878831.443 5      -687.442 5        33.000 5                                                
E09  27647524.21714     -2613.87114        24.00014
G26  22536879.74314     -1636.71314        25.00014  22536886.63813     -1221.73113        18.00013
R12  20556055.63924       152.70824        29.00024
C24  21828613.46523       362.80323        21.00023  21828603.272 5       481.593 5        33.000 5
G28  24816157.73113     -2697.15113        19.00013                                                
C06                                                  35619054.54225       747.17225        34.00025
C25  23684696.62624      1831.73424        24.00024  23684681.336 5      2431.300 5        32.000 5
R11  23698038.58923     -1669.53523        20.00023
C07                                                  36671150.99014       770.83614        28.00014
C09                                                  36666650.80615      1110.33115        34.00015
E11  26704315.38713      3116.28213        23.00013
C10                                                  37692466.848 6       824.512 6        39.000 6
C11                                                  24970761.901 5      3777.659 5        34.000 5
C44                                                  22116013.40315       275.01515        31.00015
C12                                                  22367729.04314      1899.27614        26.00014
C14                                                  25943426.839 5     -2173.553 5        30.000 5
C16                                                  35891210.932 5       775.061 5        34.000 5
E12  26585861.39113      1598.33913        20.00013
E24  24768765.640 5      -593.221 5        31.000 5
C26                                                  24509697.58914     -1318.51814        27.00014
C33  25496943.23322     -1353.96922        17.00022  25496883.275 6     -1797.261 6        37.000 6
C35  25008459.00423     -1518.23523        21.00023  25008440.41725     -2012.58025        33.00025
E25  24389362.396 5      1053.801 5        33.000 5
C34                                                  23030333.33214      3143.43214        29.00014
E31  28026574.90614     -1351.75314        25.00014
C39                                                  35783328.21715       445.59915        30.00015
E33  28320337.93812      -659.66012        16.00012
C40                                                  36341817.58316       781.75216        36.00016
C41                                                  25990246.627 6       -44.925 6        38.000 6
> 2024 12 28 06 16 27.0000181  0 48                      
G31  22590699.98414     -2065.67014        27.00014                                                
G08  20819674.539 5      2706.288 5        35.000 5  20819694.02611      2022.04411        12.00011
J02  39290883.18815       199.90515        30.00015  39290883.18813       148.47213        18.00013
G09  22118634.488 6      1057.743 6        41.000 6  22118646.77914       789.45014        27.00014
R02  22086909.55126     -2825.76626        40.00026
G27  19858720.39415       536.19015        32.00015  19858728.78813       400.26213        19.00013
E03  25255505.37715      1124.06515        32.00015
G04  21195768.075 6      -471.983 6        41.000 6  21195780.06713      -352.67113        20.00013
J03  37214842.60114       584.17414        28.00014  37214850.69512       436.97112        17.00012
E05  23025735.71515     -1449.14515        34.00015
J04  36735005.58514       146.21814        26.00014  36735022.97312       109.24612        14.00012
R03  21964819.97225       159.00825        34.00025
R13  21172415.44225      2096.41625        33.00025
R23  20924630.08024      3831.77624        26.00024
R21  23556166.90524     -2987.64824        29.00024
G07  24965175.56914      3561.72714        27.00014                                                
R22  20456298.49925       397.40025        32.00025
G16  20955673.58916      -941.47716        36.00016                                                
G18  24879014.916 5      -687.484 5        31.000 5                                                
E09  27648081.83114     -2612.38714        28.00014
G26  22537251.78515     -1635.58615        31.00015  22537258.68013     -1219.91313        18.00013
R12  20556086.81726       153.49526        39.00026
C24  21828581.38824       362.37324        26.00024  21828570.295 6       481.172 6        39.000 6
G28  24816732.13413     -2700.57513        19.00013                                                
C06                                                  35618970.000 5       747.361 5        34.000 5
C25  23684290.40724      1830.83124        24.00024  23684270.92015      2429.86215        30.00015
R11  23698408.53324     -1665.75824        26.00024
C07                                                  36671063.15115       769.66015        32.00015
C09                                                  36666497.01215      1110.33115        35.00015
E11  26703781.75713      3117.53213        21.00013
C10                                                  37692368.216 5       824.008 5        34.000 5
C11                                                  24970096.06215      3778.93015        31.00015
C44                                                  22116020.89715       275.80015        30.00015
C12                                                  22367422.65615      1899.33415        30.00015
C14                                                  25943905.60815     -2173.80015        30.00015
C16                                                  35891120.694 5       774.975 5        35.000 5
E12  26585616.76014      1599.46314        28.00014
E24  24768939.220 5      -594.204 5        35.000 5
C26                                                  24510010.57315     -1318.82815        32.00015
C33  25497350.05223     -1352.47223        18.00023  25497290.993 6     -1795.448 6        36.000 6
C35  25008905.69523     -1516.69023        21.00023  25008888.60715     -2013.40015        33.00015
E25  24389223.892 5      1052.301 5        32.000 5
C34                                                  23029788.90915      3143.05915        30.00015
E31  28026890.58714     -1349.53914        27.00014
C39                                                  35783301.83615       446.14815        32.00015
E33  28320516.61413      -658.38813        18.00013
C40                                                  36341726.74615       781.40415        33.00015
C41                                                  25990312.881 6       -45.392 6        36.000 6
> 2024 12 28 06 16 28.0000184  0 48                      
G31  22591179.65215     -2065.63315        31.00015                                                
G08  20819251.832 5      2704.927 5        34.000 5  20819267.42112      2021.50012        13.00012
J02  39290932.65315       198.98815        34.00015  39290934.45213       148.30813        19.00013
G09  22118521.166 6      1054.836 6        41.000 6  22118536.45613       790.07513        23.00013
R02  22087530.72125     -2825.27525        32.00025
G27  19858708.10216       535.85216        38.00016  19858717.39613       398.66213        19.00013
E03  25255381.86316      1124.06416        39.00016
G04  21195948.55015      -471.55915        34.00015  21195959.04313      -352.70513        19.00013
J03  37214823.71414       583.42614        27.00014  37214830.00913       435.61613        18.00013
E05  23026103.86014     -1449.64614        27.00014
J04  36735067.34215       146.00315        32.00015  36735085.62912       108.96412        15.00012
R03  21964880.53026       157.99726        39.00026
R13  21172114.15025      2096.79525        34.00025
R23  20924001.71525      3832.20025        30.00025
R21  23556820.75224     -2988.80624        29.00024
G07  24964587.97515      3562.37715        34.00015                                                
R22  20456312.88926       396.30626        39.00026
G16  20955948.19916      -942.98416        38.00016                                                
G18  24879234.065 5      -687.611 5        34.000 5                                                
E09  27648669.42414     -2614.91814        28.00014
G26  22537649.91015     -1635.34815        32.00015  22537660.10312     -1222.06412        17.00012
R12  20556148.27527       153.38027        42.00027
C24  21828579.88924       361.84424        27.00024  21828566.998 7       480.243 7        43.000 7
G28  24817336.51513     -2699.25313        18.00013                                                
C06                                                  35618915.138 6       746.303 6        38.000 6
C25  23683913.86823      1831.44423        20.00023  23683894.98116      2430.46516        36.00016
R11  23698808.15724     -1663.99524        24.00024
C07                                                  36671005.89115       768.86915        31.00015
C09                                                  36666367.50216      1107.40516        36.00016
E11  26703279.30413      3115.84613        23.00013
C10                                                  37692301.063 5       822.015 5        30.000 5
C11                                                  24969460.20214      3776.89314        27.00014
C44                                                  22116057.17215       274.92115        32.00015
C12                                                  22367144.44815      1898.26515        33.00015
C14                                                  25944410.45813     -2173.01413        23.00013
C16                                                  35891060.436 6       774.832 6        40.000 6
E12  26585400.91015      1598.20115        30.00015
E24  24769145.178 5      -594.071 5        35.000 5
C26                                                  24510352.33615     -1318.99215        32.00015
C33  25497786.84923     -1353.81123        18.00023  25497727.19125     -1800.40625        30.00025
C35  25009381.46524     -1517.31024        26.00024  25009364.67726     -2013.15126        37.00026
E25  24389115.966 6      1050.400 6        36.000 6
C34                                                  23029274.46515      3141.81415        34.00015
E31  28027235.94815     -1350.56915        32.00015
C39                                                  35783306.33316       445.20416        39.00016
E33  28320727.36813      -659.61813        19.00013
C40                                                  36341660.79215       780.47715        34.00015
C41                                                  25990415.410 6       -48.965 6        38.000 6
> 2024 12 28 06 16 29.0000186  0 48                      
G31  22591632.33815     -2068.08115        34.00015                                                
G08  20818798.54615      2706.33415        30.00015  20818811.43711      2021.13911        12.00011
J02  39290954.83815       197.35115        35.00015  39290956.63713       148.01313        20.00013
G09  22118382.363 6      1059.982 6        41.000 6  22118394.95413       789.94713        23.00013
R02  22088119.51324     -2825.52024        29.00024
G27  19858667.03115       533.74515        35.00015  19858674.82513       395.61213        18.00013
E03  25255227.77017      1127.10217        42.00017
G04  21196099.04615      -471.39015        32.00015  21196108.93913      -351.01513        18.00013
J03  37214775.14714       583.72214        29.00014  37214779.04513       433.80513        19.00013
E05  23026439.92714     -1450.99614        25.00014
J04  36735102.41814       145.52414        29.00014  36735117.70712       108.27712        14.00012
R03  21964911.70827       160.05927        42.00027
R13  21171780.78125      2096.93025        31.00025
R23  20923345.17024      3830.21424        26.00024
R21  23557437.72524     -2990.07824        25.00024
G07  24963970.40316      3562.54516        36.00016                                                
R22  20456298.19926       395.59826        38.00026
G16  20956190.13127      -943.50127        42.00027                                                
G18  24879426.232 5      -693.135 5        35.000 5                                                
E09  27649226.43914     -2612.82214        26.00014
G26  22538018.65415     -1635.06015        32.00015  22538031.84513     -1221.69813        19.00013
R12  20556182.45127       152.39227        42.00027
C24  21828548.11124       361.53424        25.00024  21828534.920 7       478.778 7        43.000 7
G28  24817908.81912     -2699.33112        16.00012                                                
C06                                                  35618831.196 5       745.887 5        35.000 5
C25  23683507.04923      1831.99323        20.00023  23683489.96117      2431.89817        42.00017
R11  23699177.50123     -1665.71223        23.00023
C07                                                  36670920.45015       770.36815        32.00015
C09                                                  36666216.70625      1110.73625        32.00025
E11  26702748.07213      3119.70413        22.00013
C10                                                  37692204.23014       823.80014        28.00014
C11                                                  24968794.36314      3775.59414        29.00014
C44                                                  22116064.06715       273.67315        31.00015
C12                                                  22366839.25915      1895.66115        32.00015
C14                                                  25944885.62914     -2171.19514        24.00014
C16                                                  35890969.599 6       773.607 6        36.000 6
E12  26585154.78015      1594.69615        30.00015
E24  24769318.15814      -595.72114        29.00014
C26                                                  24510664.72014     -1319.65614        29.00014
C33  25498192.76823     -1355.11123        18.00023  25498134.90915     -1797.93415        30.00015
C35  25009828.45624     -1518.43724        24.00024  25009813.16716     -2017.47416        39.00016
E25  24388976.563 6      1054.237 6        39.000 6
C34                                                  23028731.54114      3141.71514        29.00014
E31  28027551.93014     -1352.89714        29.00014
C39                                                  35783284.44816       443.06316        36.00016
E33  28320912.94013      -660.40513        20.00013
C40                                                  36341570.25425       781.13125        34.00025
C41                                                  25990483.163 7       -41.941 7        42.000 7
> 2024 12 28 06 16 30.0000189  0 48                      
G31  22592116.20315     -2068.05515        30.00015                                                
G08  20818373.14015      2704.98415        35.00015  20818386.33111      2018.73111        12.00011
J02  39291007.30215       198.03815        32.00015  39291010.00013       148.17813        19.00013
G09  22118270.540 7      1055.277 7        43.000 7  22118283.43114       789.11314        28.00014
R02  22088739.48425     -2825.53825        32.00025
G27  19858656.53816       532.44716        36.00016  19858664.63313       396.90113        18.00013
E03  25255102.15725      1122.44825        35.00025
G04  21196272.62615      -474.23015        34.00015  21196289.11412      -353.37012        17.00012
J03  37214754.16214       582.43314        29.00014  37214759.55813       429.24913        19.00013
E05  23026806.57415     -1452.80315        31.00015
J04  36735163.87514       143.84414        25.00014  36735179.76412       106.97812        13.00012
R03  21964964.17226       156.42626        39.00026
R13  21171479.49025      2097.45625        30.00025
R23  20922711.10924      3827.34924        29.00024
R21  23558096.06924     -2993.87224        27.00024
G07  24963382.21015      3565.21915        31.00015                                                
R22  20456312.88925       394.10525        32.00025
G16  20956456.647 5      -942.572 5        34.000 5                                                
G18  24879652.27516      -690.31916        36.00016                                                
E09  27649812.83313     -2617.58613        23.00013
G26  22538420.97614     -1637.86214        26.00014  22538433.26714     -1221.25514        24.00014
R12  20556246.60726       152.42426        36.00026
C24  21828546.31223       361.63223        20.00023  21828531.922 6       479.505 6        38.000 6
G28  24818511.70212     -2699.47512        16.00012                                                
C06                                                  35618776.034 6       745.548 6        37.000 6
C25  23683130.21023      1832.88123        22.00023  23683115.82016      2430.92316        39.00016
R11  23699574.42624     -1666.82624        28.00024
C07                                                  36670861.39115       769.61815        32.00015
C09                                                  36666094.691 6      1109.720 6        36.000 6
E11  26702245.02014      3113.77214        25.00014
C10                                                  37692136.47715       821.56815        35.00015
C11                                                  24968158.80314      3775.40414        26.00014
C44                                                  22116106.03815       271.89815        34.00015
C12                                                  22366566.74814      1896.23114        27.00014
C14                                                  25945390.78014     -2172.48814        27.00014
C16                                                  35890914.137 6       773.555 6        37.000 6
E12  26584941.92814      1595.05314        29.00014
E24  24769520.51815      -594.65215        33.00015
C26                                                  24511004.68514     -1321.18214        28.00014
C33  25498629.26623     -1355.98123        18.00023  25498568.40816     -1797.82216        40.00016
C35  25010304.52623     -1517.76023        22.00023  25010290.43615     -2016.25215        31.00015
E25  24388865.640 6      1051.950 6        37.000 6
C34                                                  23028217.99615      3140.54715        32.00015
E31  28027901.48814     -1351.66414        29.00014
C39                                                  35783288.34525       442.96725        35.00025
E33  28321126.69213      -664.79613        21.00013
C40                                                  36341512.095 5       779.264 5        34.000 5
C41                                                  25990582.694 6       -47.047 6        40.000 6
> 2024 12 28 06 16 31.0000192  0 48                      
G31  22592599.16914     -2069.03514        27.00014                                                
G08  20817945.63615      2703.11115        35.00015  20817962.72412      2019.32712        14.00012
J02  39291058.56616       198.25716        36.00016  39291063.06314       147.51214        24.00014
G09  22118158.11815      1057.38115        35.00015  22118172.80814       787.83314        27.00014
R02  22089353.75925     -2827.36425        35.00025
G27  19858646.64526       530.37926        37.00026  19858653.54013       396.25413        18.00013
E03  25254980.441 7      1122.708 7        43.000 7
G04  21196451.90226      -474.50226        36.00026  21196468.99012      -354.47712        17.00012
J03  37214732.87714       581.61114        29.00014  37214739.47213       428.86413        18.00013
E05  23027173.81915     -1453.02615        34.00015
J04  36735226.53214       143.96814        25.00014  36735241.22212       109.22312        13.00012
R03  21965028.02827       155.54827        43.00027
R13  21171177.59926      2097.30326        36.00026
R23  20922083.64324      3826.69024        29.00024
R21  23558745.72023     -2994.48523        23.00023
G07  24962794.01716      3563.99016        38.00016                                                
R22  20456326.38025       392.51025        34.00025
G16  20956726.160 6      -943.643 6        39.000 6                                                
G18  24879872.02315      -689.07115        31.00015                                                
E09  27650401.02614     -2618.51114        28.00014
G26  22538822.69815     -1635.51415        35.00015  22538834.68913     -1221.24213        18.00013
R12  20556307.76426       152.07026        37.00026
C24  21828545.71223       361.00623        21.00023  21828529.823 6       478.435 6        38.000 6
G28  24819114.28512     -2697.52812        17.00012                                                
C06                                                  35618725.66915       746.94015        34.00015
C25  23682753.67124      1831.72124        27.00024  23682736.88227      2430.43427        44.00027
R11  23699972.55024     -1667.40124        28.00024
C07                                                  36670802.93115       767.41415        34.00015
C09                                                  36665970.877 6      1109.001 6        38.000 6
E11  26701742.26814      3111.53014        25.00014
C10                                                  37692067.22514       823.17414        27.00014
C11                                                  24967523.84315      3775.13115        30.00015
C44                                                  22116144.41225       270.31325        35.00025
C12                                                  22366289.44015      1894.89815        32.00015
C14                                                  25945895.33014     -2173.03414        26.00014
C16                                                  35890853.57915       774.40115        35.00015
E12  26584727.57614      1595.56914        27.00014
E24  24769722.57816      -594.19116        37.00016
C26                                                  24511347.04814     -1321.11614        29.00014
C33  25499064.26523     -1354.71623        18.00023  25499002.50816     -1799.30716        38.00016
C35  25010780.89722     -1518.30322        16.00022  25010766.20715     -2015.28715        35.00015
E25  24388756.215 6      1051.704 6        41.000 6
C34                                                  23027708.04914      3140.36814        26.00014
E31  28028247.44814     -1350.90314        25.00014
C39                                                  35783291.343 5       442.318 5        35.000 5
E33  28321344.94113      -660.16913        21.00013
C40                                                  36341451.537 6       779.722 6        38.000 6
C41                                                  25990681.626 6       -47.230 6        40.000 6
> 2024 12 28 06 16 32.0000194  0 48                      
G31  22593052.15514     -2070.49214        28.00014                                                
G08  20817495.04825      2704.34925        35.00025  20817508.23912      2020.09512        14.00012
J02  39291081.65025       196.18625        34.00025  39291085.24814       147.14214        24.00014
G09  22118022.01226      1056.80126        36.00026  22118031.00614       788.42614        26.00014
R02  22089943.15124     -2827.20224        29.00024
G27  19858603.175 6       529.012 6        40.000 6  19858613.06814       396.25414        24.00014
E03  25254827.247 7      1124.321 7        42.000 7
G04  21196600.89926      -473.10726        37.00026  21196619.78513      -354.65313        18.00013
J03  37214680.41314       580.34014        29.00014  37214688.80713       432.83713        19.00013
E05  23027510.48615     -1451.71715        35.00015
J04  36735258.90914       143.57914        24.00014  36735273.59912       107.99812        14.00012
R03  21965060.40527       157.93927        44.00027
R13  21170846.62826      2097.34526        38.00026
R23  20921431.89424      3825.84324        29.00024
R21  23559365.09123     -2992.85123        23.00023
G07  24962176.74516      3563.18716        37.00016                                                
R22  20456312.58926       390.28626        36.00026
G16  20956965.095 6      -945.344 6        36.000 6                                                
G18  24880062.09115      -691.92515        33.00015                                                
E09  27650959.23914     -2617.68814        28.00014
G26  22539192.34215     -1636.35615        34.00015  22539207.03213     -1223.26913        19.00013
R12  20556340.44226       151.17126        36.00026
C24  21828513.63424       360.58024        25.00024  21828498.645 6       477.010 6        37.000 6
G28  24819685.68912     -2698.12512        16.00012                                                
C06                                                  35618642.02726       744.21126        37.00026
C25  23682346.85224      1832.81824        24.00024  23682330.664 7      2432.185 7        44.000 7
R11  23700339.19724     -1667.71624        28.00024
C07                                                  36670712.99415       767.02315        31.00015
C09                                                  36665818.282 6      1108.888 6        39.000 6
E11  26701209.53713      3113.08913        21.00013
C10                                                  37691969.79214       824.64014        27.00014
C11                                                  24966858.30414      3775.93914        27.00014
C44                                                  22116151.307 5       267.729 5        35.000 5
C12                                                  22365984.55115      1892.46415        35.00015
C14                                                  25946371.70114     -2173.39714        26.00014
C16                                                  35890763.34226       772.88626        39.00026
E12  26584485.34414      1593.18314        28.00014
E24  24769896.45816      -597.08116        38.00016
C26                                                  24511660.63014     -1322.18914        28.00014
C33  25499468.68522     -1354.62322        17.00022  25499407.22816     -1797.35516        39.00016
C35  25011226.98823     -1521.12123        18.00023  25011212.89815     -2016.30515        34.00015
E25  24388615.613 7      1053.116 7        42.000 7
C34                                                  23027163.32714      3138.90114        26.00014
E31  28028566.12714     -1354.82014        24.00014
C39                                                  35783266.460 6       441.733 6        37.000 6
E33  28321533.21113      -657.76013        20.00013
C40                                                  36341362.198 6       780.815 6        36.000 6
C41                                                  25990750.278 6       -44.881 6        39.000 6
> 2024 12 28 06 16 33.0000197  0 48                      
G31  22593535.72115     -2071.34615        31.00015                                                
G08  20817069.942 6      2701.418 6        37.000 6  20817082.53412      2019.60612        17.00012
J02  39291135.313 5       196.730 5        34.000 5  39291137.71114       146.77614        24.00014
G09  22117908.39116      1053.51916        36.00016  22117918.88313       788.47713        23.00013
R02  22090564.92025     -2826.83425        32.00025
G27  19858594.481 6       528.090 6        38.000 6  19858602.57613       394.84113        20.00013
E03  25254704.032 7      1122.142 7        42.000 7
G04  21196784.372 6      -475.682 6        41.000 6  21196798.46214      -354.44614        24.00014
J03  37214661.52614       578.58914        28.00014  37214668.12113       435.17913        18.00013
E05  23027875.63316     -1453.28716        38.00016
J04  36735320.36714       145.89214        27.00014  36735335.95612       106.33512        13.00012
R03  21965120.36427       154.72727        45.00027
R13  21170541.13926      2097.22126        39.00026
R23  20920805.62824      3825.61324        26.00024
R21  23560014.74123     -2994.42123        20.00023
G07  24961590.05116      3563.55716        39.00016                                                
R22  20456328.77825       388.26725        33.00025
G16  20957232.810 5      -945.475 5        32.000 5                                                
G18  24880286.93614      -693.79614        27.00014                                                
E09  27651546.53313     -2615.69913        22.00013
G26  22539592.56515     -1638.06115        31.00015  22539607.55413     -1224.20813        20.00013
R12  20556400.70024       151.04124        29.00024
C24  21828513.03523       359.76423        19.00023  21828496.546 5       477.656 5        30.000 5
