     4.01           OBSERVATION DATA    M                   RINEX VERSION / TYPE
GnssLogger          Xiaomi 14           20241214 072911 UTC PGM / RUN BY / DATE
Google GnssLogger                                           MARKER NAME
Unknown                                                     MARKER NUMBER
Unknown             Unknown                                 OBSERVER / AGENCY
Unknown             GnssLogger          v3.1.0.3            REC # / TYPE / VERS
Unknown             Unknown                                 ANT # / TYPE
 -2854035.9317  4667264.8389  3268186.2469                  APPROX POSITION XYZ
        0.0000        0.0000        0.0000                  ANTENNA: DELTA H/E/N
G    3 C1C D1C S1C                                          SYS / # / OBS TYPES
R    3 C1C D1C S1C                                          SYS / # / OBS TYPES
J    3 C1C D1C S1C                                          SYS / # / OBS TYPES
C    3 C2I D2I S2I                                          SYS / # / OBS TYPES
E    3 C1C D1C S1C                                          SYS / # / OBS TYPES
  2024    12    14    07    29   11.0000000     GPS         TIME OF FIRST OBS
 6 R04  6 R05  1 R14 -7 R15  0 R17  4 R24  2                GLONASS SLOT / FRQ #
Xiaomi 22101320I (Android 14) HW Year: 2018 HW Model:       COMMENT
qcom;MPSS.HI.4.3.c2-00125-LC_ALL_PACK-1.48771.36;           COMMENT
                                                            END OF HEADER
> 2024 12 14 07 29 11.4197346  0 43                      
G07  24359931.44125      3185.92725        31.10025
G08  20450984.34926      1769.95026        37.00026
G09  22080143.50624        65.55024        27.70024
G16  21217601.03125     -1509.54825        33.90025
G18  25143196.19824     -1606.75024        25.70024
G21  23903706.37925      3777.38525        30.60025
G26  22939541.75725     -2122.47625        34.70025
G27  19900825.61625      -491.86625        33.10025
G31  23014418.22125     -2737.14325        32.50025
J02  39319080.73824      -137.81424        28.80024
J03  37065450.89325       119.22925        34.70025
J04  36811494.00426      -286.68726        38.50026
R14  20581342.20426      -434.25126        36.20026
R15  21104103.20424      1759.52724        29.40024
R05  21927448.41426     -1381.88326        37.30026
R24  20456499.03124      -941.35824        29.30024
R17  20506178.23925      3150.94525        30.80025
R04  22749212.81925     -3597.03025        33.00025
C59  37309480.75525       -23.55025        32.60025
C44  22206158.86726      -663.71526        38.20026
C41  26111327.67524      -874.30024        27.10024
C39  35785470.20525       -86.23325        34.50025
C35  25494257.66423     -2712.50023        22.10023
C34  22560327.98126      2402.59626        35.60026
C33  25921599.52124     -2316.95024        28.50024
C26  24869036.89523     -1896.50023        20.80023
C25  23304939.89724      1972.45024        26.50024
C24  21837422.83826      -129.43426        38.70026
C16  35818343.34825       247.89825        30.70025
C12  22149380.87426       976.86826        35.80026
C11  24366508.28824      3248.70024        24.80024
C09  36507557.21525       643.52725        29.90025
C06  35584242.61225       245.22525        34.50025
C03  36829552.00326        16.25026        37.00026
C01  37569136.99925        35.30025        31.80025
E02  23919551.61024      -438.27424        28.20024
E03  26475934.66325     -2912.68025        35.40025
E07  26242294.70824      1209.96124        27.50024
E11  27114921.30123      -583.65023        23.10023
E25  26639229.51626     -1590.16026        37.30026
E30  25640779.42925      1145.02925        34.60025
E34  27025304.94224      2866.58424        28.80024
E36  25823375.22024      1608.48424        23.90024
> 2024 12 14 07 29 12.4197346  0 44                      
G07  24359288.18325      3185.00425        33.40025
G08  20450644.48127      1768.25927        42.40027
G09  22080097.73425        63.51225        32.60025
G16  21217878.43626     -1510.74526        36.30026
G18  25143523.96823     -1607.75023        22.90023
G21  23903000.16525      3776.51625        33.10025
G26  22939949.87026     -2123.85426        36.20026
G27  19900903.35825      -493.45625        35.20025
G31  23014932.46126     -2738.53326        36.20026
J02  39319104.51824      -139.14124        28.70024
J03  37065433.90126       118.12126        36.80026
J04  36811546.86426      -287.78026        39.10026
R14  20581423.24426      -435.86926        38.50026
R15  21103750.14525      1758.95325        33.70025
R05  21927696.43926     -1383.69426        36.70026
R24  20456653.82024      -942.25024        26.40024
R17  20505583.54726      3149.01026        35.90026
R04  22749866.76225     -3598.71125        34.20025
C59  37309488.34626       -14.25326        38.50026
C44  22206286.97526      -665.35726        37.40026
C43  26166507.87123      3402.35023        19.50023
C41  26111503.45025      -876.32725        31.60025
C39  35785484.39226       -87.44926        38.90026
C35  25494774.30224     -2710.55024        29.20024
C34  22559870.59426      2401.09226        37.30026
C33  25922076.58724     -2320.55024        25.60024
C24  21837444.81926      -130.72426        41.40026
C16  35818299.97425       246.82225        34.10025
C14  26407853.39124     -2495.45024        24.50024
C12  22149195.99826       975.17026        36.70026
C11  24365914.19624      3246.65024        28.10024
C09  36507430.19925       644.34825        32.00025
C06  35584197.74026       243.85326        36.20026
C04  38499161.05324        43.55024        27.80024
C03  36829549.10126        14.59426        40.50026
C01  37569128.40125        13.85025        35.30025
E02  23919634.74925      -439.50725        33.00025
E03  26476483.07925     -2913.82125        33.60025
E07  26242063.96425      1208.32325        34.00025
E08  24609810.35023     -1350.00023        19.40023
E25  26639533.90226     -1591.54626        38.60026
E30  25640561.57625      1143.73125        34.90025
E34  27024757.61725      2865.72625        30.10025
E36  25823060.83424      1606.90324        25.70024
> 2024 12 14 07 29 13.4197347  0 42                      
G07  24358725.23725      3185.36225        31.50025
G08  20450336.05827      1768.35227        42.50027
G09  22080092.70125        63.36825        33.20025
G16  21218204.67425     -1510.61725        33.70025
G21  23902307.10925      3777.29225        32.40025
G26  22940381.63625     -2123.62025        31.60025
G27  19901036.53025      -493.66925        33.70025
G31  23015489.83925     -2738.15425        34.50025
J02  39319154.64725      -137.77625        32.30025
J03  37065439.96126       118.72326        38.00026
J04  36811649.75726      -286.97826        36.80026
R14  20581545.32427      -435.30327        41.60027
R15  21103469.00424      1758.92024        29.40024
R05  21927961.22025     -1383.86625        34.50025
R24  20456884.12524      -946.50024        27.70024
R17  20505018.80225      3149.20425        35.40025
R04  22750569.54025     -3598.18825        31.10025
C60  38497013.40424       -44.60024        28.20024
C59  37309531.28026       -10.10026        36.10026
C44  22206456.42225      -665.28025        32.80025
C41  26111695.38125      -876.63225        32.60025
C39  35785534.22226       -86.98926        40.40026
C35  25495328.38324     -2714.40024        26.30024
C34  22559435.65926      2401.29126        36.30026
C33  25922524.54124     -2320.60024        26.80024
C25  23304215.45923      1969.35023        22.60023
C24  21837498.54626      -130.45226        40.10026
C16  35818277.55424       247.75024        28.90024
C14  26408427.55723     -2494.40023        22.60023
C12  22149034.17426       975.18726        36.50026
C11  24365292.19124      3249.80024        27.30024
C09  36507341.52524       645.25024        27.60024
C06  35584185.81224       243.45024        28.50024
C03  36829576.74626        15.19426        41.30026
C01  37569157.54525         1.85025        34.40025
E02  23919751.73225      -438.55625        31.60025
E03  26477086.92624     -2921.00024        23.80024
E07  26241876.35825      1208.32825        32.30025
E25  26639866.73526     -1590.80826        38.50026
E30  25640378.16726      1144.28526        39.10026
E34  27024233.94425      2866.27825        30.50025
E36  25822800.37924      1607.39324        27.20024
> 2024 12 14 07 29 14.4197347  0 44                      
G07  24358078.27424      3180.35024        26.00024
G08  20450001.17926      1763.84126        40.30026
G09  22080121.47025        58.76625        31.70025
G16  21218494.26225     -1513.99325        30.90025
G18  25144103.52024     -1610.15024        24.70024
G21  23901620.27325      3773.11525        34.50025
G26  22940804.93224     -2130.45024        25.20024
G27  19901138.44925      -497.71725        32.00025
G31  23016004.87226     -2742.41526        36.30026
J02  39319200.80425      -141.53525        31.90025
J03  37065411.17025       114.63025        34.80025
J04  36811671.33125      -291.19425        33.20025
R14  20581629.85426      -439.54526        41.40026
R15  21103172.19824      1754.75024        23.50024
R05  21928249.90925     -1388.58025        34.30025
R24  20457054.69625      -948.49125        32.70025
R17  20504426.10125      3144.50425        34.20025
R04  22751243.46225     -3602.24925        33.20025
C60  38497016.39024       -39.25024        26.50024
C59  37309529.47126       -17.71026        38.10026
C44  22206569.43226      -669.70826        36.40026
C41  26111820.98324      -881.60024        26.20024
C39  35785551.89826       -91.08426        36.60026
C35  25495877.29223     -2717.60023        22.90023
C34  22558978.16525      2396.83025        31.00025
C33  25922950.83525     -2323.85325        30.10025
C25  23303802.93323      1973.95023        23.20023
C24  21837524.01726      -134.52426        36.10026
C16  35818240.36825       243.06425        29.90025
C14  26408865.84324     -2495.80024        23.50024
C12  22148843.19526       970.83626        37.70026
C11  24364664.11424      3245.25024        26.90024
C09  36507244.38124       637.30024        25.40024
C06  35584124.64324       237.85024        27.10024
C03  36829571.03926        11.00026        38.30026
C01  37569155.43525        11.70025        34.60025
E02  23919832.06524      -443.08124        28.10024
E03  26477624.14324     -2916.61824        26.30024
E07  26241660.79724      1204.00624        27.30024
E11  27115287.49723      -587.00023        23.10023
E25  26640174.91126     -1594.76626        39.40026
E30  25640163.50426      1140.12426        38.60026
E34  27023689.50924      2862.19024        27.20024
E36  25822476.29224      1602.57324        26.10024
> 2024 12 14 07 29 15.4197347  0 47                      
G07  24357525.38624      3182.15024        28.30024
G08  20449664.44226      1762.70726        39.80026
G09  22080086.92426        57.87726        36.80026
G16  21218773.29926     -1514.90926        36.40026
G18  25144397.54624     -1609.40024        24.10024
G21  23900901.60025      3772.63225        35.10025
G26  22941207.78225     -2129.90825        31.40025
G27  19901229.81526      -499.76026        38.00026
G31  23016533.63526     -2743.26626        35.80026
J02  39319207.92924      -142.48724        29.20024
J03  37065394.31125       113.56225        31.60025
J04  36811722.82425      -291.62125        32.70025
R14  20581707.13026      -440.25026        40.20026
R15  21102813.57624      1753.90024        28.30024
R05  21928501.36426     -1389.83426        39.00026
R24  20457236.30025      -950.10425        34.40025
R17  20503839.03726      3143.34626        38.90026
R04  22751914.92725     -3601.31525        29.50025
C60  38497019.01824       -28.70024        24.90024
C59  37309527.00225       -20.65025        35.40025
C44  22206709.96426      -671.30226        35.60026
C43  26164566.39724      3397.05024        25.30024
C41  26112014.27826      -881.82826        35.50026
C39  35785567.41726       -91.63626        37.10026
C35  25496379.07426     -2716.91226        36.90026
C34  22558512.81627      2396.05627        41.60027
C33  25923415.14324     -2322.15024        27.40024
C26  24870523.04523     -1905.20023        21.90023
C25  23303444.61125      1970.88625        34.10025
C24  21837551.52726      -135.27626        35.80026
C16  35818192.03125       242.73725        34.30025
C14  26409382.91424     -2497.30024        28.00024
C12  22148659.05226       969.55226        40.60026
C11  24364049.17025      3244.28125        34.30025
C09  36507104.60725       639.23125        30.60025
C06  35584094.29425       237.78925        34.80025
C04  38499173.92624        18.05024        27.20024
C03  36829568.87026        10.79626        40.80026
E02  23919917.43625      -443.23525        32.70025
E03  26478196.67624     -2923.15624        25.80024
E07  26241403.50425      1204.25925        30.00025
E08  24610602.98423     -1358.40023        21.70023
E11  27115398.95024      -589.07024        25.40024
E25  26640475.53226     -1595.19626        36.40026
E30  25639936.79126      1139.70326        40.30026
E34  27023151.61124      2862.06624        29.40024
E36  25822171.03324      1602.84924        25.60024
> 2024 12 14 07 29 16.4197347  0 46                      
G04  21412924.10723     -1454.70023        19.90023
G07  24356923.21924      3177.75024        27.90024
G08  20449335.08626      1759.19226        40.80026
G09  22080073.84926        54.10726        37.80026
G16  21219054.32026     -1518.31026        37.80026
G18  25144737.62625     -1616.78925        31.90025
G21  23900180.11525      3769.55325        33.10025
G26  22941616.51525     -2130.92525        33.30025
G27  19901326.76426      -502.77526        36.20026
G31  23017055.09025     -2746.63025        34.30025
J02  39319247.31726      -145.01326        36.50026
J03  37065380.63724       109.85024        27.90024
J04  36811788.89426      -294.81526        36.10026
R14  20581784.89226      -443.66126        39.60026
R15  21102514.79925      1751.39325        30.00025
R05  21928769.79426     -1393.67626        40.80026
R24  20457407.29725      -953.88325        34.80025
R17  20503254.25825      3139.42625        35.10025
R04  22752579.98225     -3606.30125        30.20025
C60  38497019.43424       -27.15024        24.60024
C59  37309540.90825       -11.50025        34.40025
C44  22206845.88624      -674.75024        27.80024
C43  26163900.67425      3391.42425        31.50025
C41  26112178.38126      -885.48326        36.50026
C39  35785585.22026       -94.82226        40.90026
C35  25496898.73025     -2720.87625        35.00025
C34  22558059.04626      2392.63726        37.00026
C33  25923818.77924     -2327.75024        27.30024
C26  24870875.71724     -1902.95024        24.80024
C25  23303067.28824      1963.75024        24.20024
C24  21837573.22826      -138.55126        39.80026
C16  35818148.37724       240.45024        27.50024
C14  26409904.66924     -2499.70024        25.70024
C12  22148463.40326       966.21226        36.00026
C11  24363421.82024      3239.45024        26.10024
C09  36506978.81025       637.36025        32.70025
C06  35584049.44125       236.65825        35.00025
C03  36829565.68826         7.88126        40.10026
E03  26478734.61924     -2921.70024        24.40024
E07  26241189.56824      1199.76224        28.30024
E08  24610874.11224     -1363.45224        27.10024
E11  27115511.48824      -592.61424        27.90024
E25  26640790.73026     -1598.19326        38.20026
E30  25639719.25726      1136.49126        39.40026
E34  27022616.59725      2858.52825        31.00025
E36  25821879.15124      1598.65824        26.30024
> 2024 12 14 07 29 17.4197347  0 48                      
G04  21413199.95124     -1456.25024        25.90024
G07  24356314.37525      3177.63125        30.10025
G08  20449001.75126      1758.27426        41.00026
G09  22080053.79726        53.08326        37.50026
G16  21219344.55426     -1518.74126        38.90026
G18  25145029.65925     -1617.63325        32.20025
G21  23899475.93725      3769.22625        34.40025
G26  22942019.17126     -2131.43926        35.80026
G27  19901422.43226      -503.85026        35.70026
G31  23017566.57125     -2747.22425        34.20025
J02  39319269.23726      -145.17826        36.10026
J03  37065354.29024       110.10024        28.00024
J04  36811838.69526      -295.17626        36.00026
R14  20581868.26926      -444.11526        39.90026
R15  21102174.56924      1750.70024        28.30024
R05  21929038.44326     -1394.78326        40.90026
R24  20457586.30825      -955.18125        33.40025
R17  20502664.00125      3138.58225        34.80025
R04  22753287.52724     -3606.66324        29.20024
C60  38497029.96124       -46.10024        24.30024
C59  37309549.63726       -33.20026        36.00026
C44  22206988.92224      -677.00024        23.70024
C43  26163238.16825      3391.18425        32.40025
C41  26112344.80026      -886.18726        37.60026
C39  35785603.54327       -95.31827        41.70027
C35  25497424.30126     -2721.36126        36.90026
C34  22557595.00226      2392.14926        36.20026
C33  25924250.21523     -2327.55023        22.30023
C26  24871259.18624     -1906.55024        24.00024
C25  23302667.10023      1965.75023        22.60023
C24  21837605.64126      -139.04226        40.90026
C16  35818113.63624       239.05024        26.00024
C14  26410418.54824     -2496.55024        24.20024
C12  22148279.36626       965.25726        36.90026
C11  24362809.37824      3240.50024        28.60024
C09  36506855.93025       636.80425        33.80025
C06  35583999.11026       236.20726        35.70026
C03  36829563.32426         2.30026        40.00026
C01  37569147.72124        31.85024        28.10024
E02  23920104.35723      -441.80023        20.80023
E03  26479316.25123     -2920.65023        22.90023
E07  26240953.06724      1199.01524        26.10024
E08  24611127.47124     -1363.94624        29.30024
E11  27115621.84625      -593.09925        29.60025
E25  26641098.65226     -1598.54326        39.00026
E30  25639503.44226      1136.07926        40.40026
E34  27022071.60925      2858.38225        33.30025
E36  25821577.29424      1598.16824        27.60024
> 2024 12 14 07 29 18.4197347  0 48                      
G04  21413521.03624     -1465.55024        24.30024
G07  24355737.28224      3177.00024        27.90024
G08  20448666.29126      1753.90526        40.90026
G09  22080040.01526        48.64526        36.60026
G16  21219639.25826     -1522.64126        35.60026
G18  25145342.95025     -1621.74125        29.80025
G21  23898766.93626      3765.49726        35.90026
G26  22942422.99925     -2135.16425        34.60025
G27  19901500.98625      -508.15625        32.20025
G31  23018099.01025     -2751.28625        33.10025
J02  39319304.02026      -148.82026        36.80026
J03  37065322.81925       106.74525        30.40025
J04  36811896.56326      -298.87026        36.70026
R14  20581959.11426      -448.12326        40.60026
R15  21101867.28924      1748.70024        28.20024
R05  21929276.78626     -1399.34426        40.80026
R24  20457785.07825      -959.20625        31.50025
R17  20502071.91925      3134.16825        35.40025
R04  22753930.59025     -3610.74225        30.10025
C60  38497038.96324       -54.80024        24.40024
C59  37309551.74326       -25.33826        36.40026
C44  22207101.95125      -679.39825        30.80025
C43  26162582.82925      3387.51025        31.20025
C41  26112508.19526      -890.33126        36.10026
C39  35785622.43727       -99.18327        41.80027
C35  25497943.24926     -2725.34426        36.20026
C34  22557138.12626      2388.02126        35.80026
C33  25924718.49924     -2336.10024        26.50024
C26  24871643.22823     -1906.60023        22.20023
C25  23302327.74224      1963.60024        26.20024
C24  21837630.23126      -143.03226        40.20026
C16  35818059.08224       236.60024        28.40024
C14  26410880.23624     -2502.20024        23.50024
C12  22148093.50225       961.08825        35.00025
C11  24362188.51624      3237.05024        28.40024
C09  36506730.62425       633.21325        33.30025
C06  35583949.65225       232.39225        34.70025
C04  38499160.59424        21.15024        28.30024
C03  36829563.93226         3.84826        41.20026
E02  23920157.42824      -462.07824        27.50024
E03  26479859.78324     -2925.36724        28.20024
E07  26240728.23025      1194.37625        29.90025
E08  24611381.10424     -1368.64324        29.00024
E11  27115737.57425      -597.76225        30.40025
E25  26641402.04926     -1602.28126        38.70026
E30  25639288.19826      1132.25526        39.10026
E34  27021531.39125      2854.57525        31.70025
E36  25821272.71324      1593.30224        27.50024
> 2024 12 14 07 29 19.4197348  0 44                      
G04  21413817.39323     -1458.15023        22.80023
G07  24355172.63524      3170.95024        24.00024
G08  20448363.36326      1750.19026        38.90026
G09  22080065.95826        44.94626        36.50026
G16  21219948.50525     -1526.15925        31.70025
G18  25145685.47424     -1626.15024        27.10024
G21  23898078.47425      3762.50925        33.80025
G26  22942865.65525     -2138.98425        31.00025
G27  19901630.65825      -512.19625        31.40025
G31  23018643.59525     -2754.78825        30.90025
J02  39319359.64425      -152.17725        33.80025
J03  37065339.17025       103.55425        30.10025
J04  36811987.86126      -302.01026        35.60026
R14  20582067.20126      -451.80426        38.30026
R15  21101577.25224      1746.80024        25.60024
R05  21929582.73626     -1403.40626        39.00026
R24  20457940.53224      -960.75024        24.80024
R17  20501515.36625      3130.46025        32.70025
R04  22754619.37523     -3616.15023        22.00023
C60  38497076.89824       -59.15024        24.40024
C44  22207264.30124      -682.75024        29.00024
C43  26161957.02424      3385.20024        28.40024
C41  26112717.01225      -893.91425        33.30025
C39  35785670.56626      -102.54926        38.70026
C35  25498496.82825     -2728.76725        34.80025
C34  22556712.28325      2384.53725        34.10025
C33  25925225.01024     -2336.70024        26.60024
C26  24872018.43023     -1905.60023        22.40023
C25  23301959.15925      1960.19925        30.20025
C24  21837686.75425      -146.36125        35.20025
C16  35818040.35724       230.55024        28.00024
C12  22147938.37125       957.13825        31.70025
C11  24361595.98824      3231.70024        28.30024
C09  36506637.85025       629.72625        32.00025
C06  35583936.92325       228.94125        33.20025
C03  36829591.67426         0.79026        40.10026
E02  23920278.40624      -457.15024        28.80024
E03  26480438.84424     -2928.68724        26.40024
E07  26240523.03425      1190.82525        32.00025
E08  24611691.55023     -1374.20023        22.60023
E11  27115887.33224      -601.72424        26.60024
E25  26641743.07525     -1605.48825        33.70025
E30  25639105.18726      1128.90026        35.50026
E34  27021018.60824      2851.28824        28.10024
> 2024 12 14 07 29 20.4197348  0 41                      
G04  21414113.27423     -1467.85023        22.30023
G07  24354517.87425      3170.47025        30.30025
G08  20448028.78025      1749.52325        34.20025
G09  22080056.65126        44.24126        38.00026
G16  21220223.10124     -1529.10024        27.00024
G18  25146009.53624     -1628.35024        23.80024
G21  23897337.97325      3762.22125        29.60025
G27  19901726.87725      -512.73925        32.50025
G31  23019173.01425     -2755.07825        31.90025
J02  39319381.21525      -152.00225        31.10025
J04  36812050.20425      -302.25925        33.60025
R14  20582161.92226      -451.92326        37.20026
R05  21929854.03426     -1403.99326        38.30026
R24  20458151.57225      -965.06825        32.00025
R17  20500947.54526      3129.66626        35.60026
R04  22755338.56324     -3610.40024        27.10024
C60  38497080.18224       -57.70024        24.30024
C44  22207386.30225      -683.82125        34.90025
C43  26161292.07024      3384.25024        28.30024
C41  26112912.16325      -894.43725        33.20025
C39  35785686.74126      -102.68926        35.60026
C35  25499019.65225     -2729.17725        32.80025
C34  22556244.59325      2383.95625        31.40025
C33  25925674.98524     -2335.80024        28.20024
C25  23301578.70925      1960.01025        30.70025
C24  21837691.83724      -147.35024        27.10024
C16  35817992.07624       232.85024        28.40024
C12  22147760.28125       956.71025        34.00025
C11  24360976.00325      3233.11225        35.10025
C09  36506516.72024       627.65024        28.40024
C06  35583881.14825       228.94825        32.00025
C03  36829592.56026         0.49526        39.70026
C01  37569178.45525        -5.60025        30.30025
E02  23920381.52125      -454.30325        30.50025
E03  26480976.65724     -2928.92724        24.50024
E07  26240299.37525      1190.45825        34.50025
E11  27116004.23724      -601.98724        23.80024
E25  26642067.43725     -1605.47125        30.60025
E30  25638895.91825      1128.86025        32.10025
E34  27020475.37024      2851.16924        28.80024
E36  25820715.24723      1589.25023        21.30023
> 2024 12 14 07 29 21.4197348  0 42                      
G07  24353905.84124      3178.65024        24.70024
G08  20447690.45726      1754.92526        35.70026
G09  22080051.39726        49.38026        38.30026
G16  21220517.94025     -1520.45025        30.20025
G18  25146320.86323     -1618.20023        22.30023
G21  23896620.71325      3768.33525        30.90025
G26  22943656.63623     -2129.10023        23.40023
G27  19901821.75425      -507.25225        32.10025
G31  23019700.19225     -2749.49825        31.30025
J02  39319410.43725      -145.91925        31.30025
J03  37065302.72423       107.60023        22.30023
J04  36812103.41025      -296.17525        34.30025
R14  20582228.61926      -445.99526        35.90026
R05  21930091.61226     -1398.70326        37.90026
R24  20458342.38325      -959.58025        30.00025
R17  20500359.79526      3135.07626        35.70026
R04  22756049.51424     -3609.20024        25.10024
C60  38497078.52624       -49.45024        24.30024
C59  37309584.41125       -21.80025        30.10025
C44  22207519.85325      -678.42925        32.00025
C43  26160650.95725      3390.08525        29.80025
C41  26113080.48925      -888.81225        33.70025
C39  35785705.17126       -96.81026        35.60026
C35  25499543.83225     -2723.42225        35.00025
C34  22555787.85225      2389.60325        34.90025
C33  25926128.11425     -2329.06525        29.50025
C25  23301209.50725      1965.94125        32.70025
C24  21837734.55025      -140.94025        32.10025
C16  35817945.75124       237.85024        29.10024
C12  22147576.35125       961.94025        34.20025
C11  24360357.67425      3238.82025        33.50025
C09  36506399.34524       635.45024        28.80024
C06  35583841.11825       234.86625        33.30025
C04  38499186.36724        -4.70024        28.10024
C03  36829592.40326         6.38526        40.50026
E02  23920468.30325      -448.32825        30.80025
E03  26481544.00724     -2922.51724        25.50024
E07  26240068.37825      1195.95325        34.40025
E11  27116094.91724      -596.27224        24.70024
E25  26642367.07225     -1599.49025        30.20025
E30  25638668.81825      1134.68825        33.10025
E34  27019925.69425      2857.49025        29.50025
> 2024 12 14 07 29 22.4197348  0 40                      
G08  20447365.15626      1756.85826        38.80026
G09  22080036.08126        51.50426        37.50026
G16  21220801.81625     -1517.89725        32.90025
G21  23895927.56525      3770.98525        32.50025
G26  22944088.01025     -2130.12825        32.00025
G27  19901923.95725      -505.48125        34.90025
G31  23020219.10625     -2747.05625        34.00025
J02  39319454.48024      -143.86224        28.70024
J03  37065247.53523       114.40023        22.40023
J04  36812165.44025      -293.75225        31.10025
R14  20582331.72026      -443.54126        36.90026
R15  21100546.96723      1753.85023        22.10023
R05  21930353.00426     -1396.69726        37.70026
R24  20458532.42525      -957.95525        31.50025
R17  20499776.97225      3137.00025        34.50025
R04  22756723.42024     -3606.10024        23.70024
C60  38497078.79924       -43.55024        24.30024
C44  22207637.04525      -676.14025        30.20025
C43  26159998.58225      3392.72025        29.90025
C41  26113241.75125      -886.73025        33.50025
C39  35785720.73325       -94.38925        33.30025
C35  25500070.24126     -2721.08526        36.70026
C34  22555323.74626      2391.75426        36.10026
C33  25926570.28125     -2326.54925        30.10025
C25  23300836.53826      1968.50626        35.90026
C24  21837767.50025      -138.61525        34.40025
C16  35817907.35125       240.11925        31.20025
C14  26412688.84823     -2501.35023        18.60023
C12  22147393.15126       964.16426        37.90026
C11  24359728.38325      3241.16125        32.10025
C09  36506271.60624       636.90024        25.60024
C06  35583800.91925       237.23125        35.30025
C03  36829589.67826         8.98226        38.80026
E02  23920542.62524      -446.31624        29.20024
E03  26482105.19224     -2920.43024        28.90024
E07  26239849.50226      1198.16726        35.50026
E11  27116229.79724      -594.41224        27.10024
E25  26642678.52925     -1596.89325        31.40025
E30  25638459.53626      1137.22626        36.90026
E34  27019379.14524      2859.73024        28.80024
> 2024 12 14 07 29 23.4197348  0 47                      
G04  21414973.21023     -1460.95023        19.00023
G07  24352748.93124      3180.00024        24.20024
G08  20447027.30526      1757.16426        39.00026
G09  22080029.50125        51.87925        33.00025
G16  21221110.31926     -1516.72926        37.80026
G18  25146875.46823     -1619.15023        22.00023
G21  23895221.27025      3772.08725        34.80025
G26  22944485.55125     -2128.71825        33.40025
G27  19902012.41125      -505.60625        34.40025
G31  23020743.15926     -2746.60226        35.80026
J02  39319464.38925      -142.05025        30.40025
J03  37065265.53825       112.29925        30.30025
J04  36812224.51525      -293.05225        30.30025
R14  20582405.48526      -442.88226        36.40026
R15  21100234.30024      1756.90024        26.20024
R05  21930653.11326     -1396.48126        36.40026
R24  20458692.82924      -956.87624        29.40024
R17  20499192.39226      3137.24626        35.60026
R04  22757335.31224     -3607.00024        28.80024
C60  38497089.00824       -47.75024        24.10024
C59  37309590.09625       -21.45025        34.50025
C44  22207769.56925      -675.31225        33.50025
C43  26159355.24324      3394.75024        28.80024
C41  26113399.15825      -885.86525        34.80025
C39  35785742.33426       -93.55926        35.90026
C35  25500598.49125     -2719.77025        30.80025
C34  22554874.07326      2392.26626        38.40026
C33  25927012.19124     -2324.55024        28.80024
C26  24873475.23923     -1905.70023        18.60023
C25  23300459.71526      1969.40726        36.80026
C24  21837799.59426      -138.06326        36.90026
C16  35817861.19825       240.59825        34.70025
C14  26413183.82124     -2501.50024        25.30024
C12  22147208.19526       964.30126        38.20026
C11  24359100.03425      3242.08125        33.70025
C09  36506150.50625       638.79925        30.20025
C06  35583754.46725       237.54325        35.30025
C03  36829588.19426         9.66126        38.10026
C01  37569173.49024         3.35024        28.80024
E02  23920630.48025      -444.71225        31.50025
E03  26482667.31925     -2919.45225        29.80025
E07  26239623.47425      1199.04825        35.20025
E11  27116324.54724      -593.60924        26.50024
E25  26642962.14925     -1596.06925        33.10025
E30  25638253.89426      1138.17226        37.10026
E34  27018841.63324      2860.85724        27.90024
E36  25819775.22923      1599.80023        20.80023
> 2024 12 14 07 29 24.4197348  0 45                      
G04  21415311.67923     -1458.45023        22.10023
G07  24352093.28723      3177.85023        23.30023
G08  20446682.84726      1757.90226        39.40026
G09  22080041.19625        52.38125        34.30025
G16  21221402.61925     -1516.72025        33.40025
G18  25147222.03124     -1614.50024        23.90024
G21  23894490.97926      3773.11226        37.70026
G26  22944887.87526     -2128.34926        37.10026
G27  19902111.64624      -503.40024        26.80024
G28  25455057.62123     -3278.60023        22.10023
G31  23021250.71125     -2745.75525        33.00025
J02  39319498.86825      -141.08825        34.80025
J03  37065232.26424       113.34024        28.90024
J04  36812297.06825      -291.57125        33.30025
R14  20582479.53726      -442.37326        35.80026
R15  21099900.33425      1754.66525        31.30025
R05  21930923.82826     -1396.08726        39.60026
R24  20458875.70624      -956.05024        28.20024
R17  20498601.80426      3138.07426        35.70026
R04  22758009.54925     -3604.03825        35.30025
C60  38497081.21624       -35.95024        24.10024
C59  37309590.69926       -17.86726        38.90026
C44  22207896.08425      -675.42125        33.80025
C43  26158704.69625      3394.58725        30.90025
C41  26113567.04525      -885.38825        32.00025
C39  35785763.32226       -92.77926        40.60026
C35  25501119.53325     -2719.80025        30.40025
C34  22554420.79026      2393.05826        38.20026
C33  25927468.47824     -2318.40024        24.00024
C25  23300083.77824      1973.50024        25.10024
C24  21837823.28026      -137.38426        37.10026
C16  35817808.13825       241.70925        34.10025
C14  26413701.56624     -2495.20024        24.90024
C12  22147021.42726       964.95226        39.40026
C11  24358479.76625      3242.95425        34.40025
C09  36506046.48124       639.73224        29.30024
C06  35583705.90425       239.05225        34.10025
C04  38499163.87424        40.40024        26.60024
C03  36829583.70126        11.36226        39.40026
E02  23920725.81724      -443.80524        28.50024
E03  26483216.54125     -2918.28225        31.80025
E07  26239385.74224      1199.51624        29.30024
E11  27116439.07124      -593.21224        26.60024
E25  26643263.74324     -1594.45424        24.80024
E30  25638027.55426      1138.93326        39.70026
> 2024 12 14 07 29 25.4197348  0 45                      
G04  21415511.00323     -1457.35023        22.60023
G07  24351537.13425      3181.99725        31.90025
G08  20446359.63226      1757.78926        39.30026
G09  22080021.07225        51.65725        33.10025
G16  21221687.98425     -1516.30225        32.90025
G18  25147544.57024     -1617.55024        25.90024
G21  23893744.45825      3773.72025        31.00025
G26  22945284.16325     -2128.52825        29.60025
G27  19902220.43226      -504.85026        40.60026
G31  23021789.10025     -2745.28525        33.90025
J02  39319525.21225      -140.60825        32.70025
J03  37065220.83426       114.00826        37.20026
J04  36812327.60925      -290.24125        32.20025
R14  20582584.42626      -442.06126        38.30026
R15  21099573.22225      1754.82025        30.20025
R05  21931142.63926     -1395.60726        36.90026
R24  20459061.53926      -958.02126        36.40026
R17  20498013.57325      3137.63625        35.20025
R04  22758615.69123     -3604.00023        22.70023
C60  38497050.00025        -3.95025        31.50025
C59  37309599.95425       -30.55025        32.00025
C44  22208033.65126      -676.07426        35.60026
C43  26158016.33525      3395.95525        31.40025
C41  26113769.96625      -885.08125        35.00025
C39  35785778.57426       -92.96726        39.30026
C35  25501631.54125     -2719.71225        31.00025
C34  22553959.67126      2394.39926        36.10026
C33  25927898.04225     -2324.72125        31.20025
C25  23299701.80525      1970.31125        34.10025
C24  21837842.72926      -137.30026        40.10026
C16  35817767.02926       241.82726        38.50026
C12  22146837.01626       964.69426        38.70026
C11  24357866.95225      3243.46625        33.90025
C09  36505913.33525       639.60725        32.40025
C06  35583660.89726       239.09626        39.50026
C03  36829580.06526         5.85026        38.00026
C01  37569154.86825        26.30025        32.20025
E02  23920801.32725      -443.22325        32.10025
E03  26483766.32325     -2917.42825        31.90025
E07  26239178.24824      1199.85524        28.70024
E11  27116539.76324      -593.41624        25.70024
E25  26643565.59625     -1594.69625        33.20025
E30  25637809.86625      1139.63425        33.80025
E34  27017770.73924      2862.60024        26.50024
E36  25819161.81923      1601.05023        23.40023
> 2024 12 14 07 29 26.4197348  0 45                      
G07  24350942.40525      3181.45825        30.30025
G08  20446023.62426      1757.25826        38.30026
G09  22080019.03225        51.20325        32.10025
G16  21221976.14325     -1516.07725        33.50025
G21  23893047.79825      3773.61725        30.20025
G26  22945684.74426     -2128.48426        38.70026
G27  19902315.52525      -505.44925        34.20025
G31  23022320.09125     -2746.33525        31.00025
J02  39319549.85326      -140.13126        37.10026
J03  37065193.01226       114.09826        37.10026
J04  36812384.62825      -290.83025        32.90025
R14  20582663.63025      -441.87325        33.00025
R15  21099281.88224      1751.15024        26.00024
R05  21931460.17725     -1399.38425        29.60025
R24  20459239.97425      -959.42125        33.50025
R17  20497408.65025      3137.82325        34.90025
R04  22759347.84324     -3607.35024        26.10024
C60  38497064.44824       -25.70024        27.90024
C59  37309598.51425       -17.70025        34.30025
C44  22208166.51725      -675.94325        35.30025
C43  26157380.53325      3394.98025        33.00025
C41  26113959.19326      -886.62726        36.90026
C39  35785796.92027       -92.68227        41.70027
C35  25502143.94425     -2719.62525        30.60025
C34  22553495.05127      2392.88227        43.80027
C33  25928367.27624     -2326.95024        26.30024
C26  24874568.90523     -1902.75023        23.40023
C25  23299331.62025      1970.55425        34.30025
C24  21837876.96425      -136.20725        34.20025
C16  35817708.02825       242.38925        30.20025
C14  26414714.28523     -2496.80023        23.00023
C12  22146654.20226       964.58626        38.40026
C11  24357242.54326      3243.01726        35.70026
C09  36505782.98426       640.43526        38.20026
C06  35583612.98925       239.40125        32.40025
C03  36829575.32726         7.43726        38.40026
C01  37569157.62525         2.55025        32.20025
E02  23920888.62524      -444.12724        28.60024
E03  26484318.59925     -2917.88925        32.70025
E07  26238924.98125      1198.85425        29.80025
E11  27116665.13524      -593.98624        25.10024
E25  26643857.95226     -1594.91426        37.20026
E30  25637576.38625      1139.16525        31.40025
E34  27017205.38924      2862.18724        28.00024
E36  25818871.07924      1597.76924        23.80024
> 2024 12 14 07 29 27.4197349  0 46                      
G04  21416142.21023     -1462.75023        21.70023
G07  24350349.80025      3179.49625        33.10025
G08  20445726.61525      1754.17825        35.10025
G09  22080027.51224        48.50024        25.20024
G16  21222288.01225     -1518.55825        33.80025
G18  25148184.77123     -1616.55023        21.60023
G21  23892349.06825      3770.93825        31.10025
G26  22946117.73025     -2130.22625        34.70025
G27  19902445.12126      -508.51626        37.80026
G31  23022872.39425     -2748.50825        29.90025
J02  39319606.59926      -142.75526        36.90026
J03  37065194.89625       111.33625        35.30025
J04  36812468.05525      -293.36625        29.80025
R14  20582788.72925      -444.58925        34.20025
R15  21098959.69125      1752.66125        29.80025
R05  21931675.81324     -1403.20024        24.50024
R24  20459443.91825      -962.20225        34.10025
R17  20496854.71925      3134.13725        33.10025
R04  22760033.85324     -3607.30024        26.00024
C60  38497100.20924        -2.90024        26.50024
C59  37309622.58225       -16.20025        31.80025
C44  22208327.59126      -679.11026        37.80026
C43  26156739.96225      3392.60325        30.20025
C41  26114170.33325      -888.56225        35.40025
C39  35785845.87126       -95.04926        38.70026
C35  25502696.84725     -2722.42825        33.30025
C34  22553067.33327      2389.86727        42.50027
C33  25928847.62924     -2328.30024        23.50024
C26  24874993.19724     -1909.25024        24.00024
C25  23298985.14525      1968.28825        31.50025
C24  21837928.61326      -139.89526        37.70026
C16  35817706.91425       239.20625        31.70025
C12  22146498.39526       961.39426        40.50026
C11  24356658.93324      3240.41624        29.30024
C09  36505692.23226       637.87326        38.50026
C06  35583599.58325       236.61225        33.00025
C04  38499209.24924       -33.15024        24.00024
C03  36829602.99326         9.03426        39.80026
C01  37569179.59525        -6.05025        33.90025
E02  23920997.53524      -445.41324        26.50024
E03  26484896.98425     -2920.41825        31.90025
E07  26238726.60424      1196.00224        26.00024
E11  27116800.12724      -596.43124        25.20024
E25  26644189.60826     -1596.60426        38.10026
E30  25637393.59825      1137.03125        31.60025
E34  27016673.04324      2860.36824        26.00024
> 2024 12 14 07 29 28.4197349  0 39                      
G07  24349729.37525      3179.57625        29.50025
G08  20445388.89424      1754.29324        28.70024
G09  22080026.75825        48.19925        29.70025
G16  21222580.45524     -1517.85824        29.40024
G21  23891658.49124      3771.90024        27.40024
G26  22946521.99625     -2130.04125        34.20025
G27  19902538.50226      -509.03526        38.10026
G31  23023386.68325     -2748.43825        32.30025
J02  39319637.32426      -142.34626        39.50026
J03  37065179.75225       111.67425        34.20025
J04  36812559.33824      -291.95024        26.40024
R14  20582847.93325      -444.56825        32.70025
R15  21098648.35224      1751.65024        23.90024
R05  21931956.86425     -1400.36625        33.10025
R24  20459622.44026      -962.87126        36.40026
R17  20496277.46526      3133.99926        37.30026
R04  22760733.41424     -3608.10024        26.80024
C60  38497104.25124       -24.50024        26.20024
C44  22208443.75726      -679.25226        36.40026
C43  26156105.44725      3393.10725        34.20025
C41  26114323.67226      -888.78926        38.50026
C39  35785864.00427       -94.79427        41.90027
C35  25503215.63325     -2722.26825        33.00025
C34  22552609.09627      2389.93127        42.70027
C33  25929280.07524     -2326.60024        27.40024
C26  24875315.91924     -1900.55024        23.60024
C25  23298615.94625      1968.55125        34.10025
C24  21837955.14026      -139.48326        37.90026
C16  35817657.89426       239.83326        37.00026
C14  26415724.21723     -2495.60023        21.30023
C12  22146314.16826       961.12626        37.10026
C11  24356024.41725      3240.76925        33.20025
C09  36505568.26326       638.05626        39.20026
C06  35583556.55926       236.87426        35.70026
E02  23921067.83224      -445.56424        28.30024
E03  26485445.75025     -2920.03925        30.00025
E07  26238493.21124      1196.23124        25.70024
E25  26644494.94225     -1596.43725        34.60025
E30  25637175.79526      1137.37026        37.00026
> 2024 12 14 07 29 29.4197349  0 45                      
G07  24349124.66525      3178.96425        32.20025
G08  20445055.79625      1753.53125        32.80025
G09  22080021.03326        46.75826        35.60026
G16  21222873.62425     -1520.47425        31.60025
G18  25148804.25823     -1622.85023        21.00023
G21  23890929.36725      3770.13225        32.50025
G26  22946938.67825     -2132.50825        31.80025
G27  19902640.40226      -510.21926        38.10026
G31  23023913.39025     -2748.03125        32.40025
J02  39319657.08126      -142.35726        36.40026
J03  37065162.93525       110.91525        34.10025
J04  36812590.78725      -293.91225        32.10025
R14  20582939.64126      -445.58726        37.60026
R15  21098334.44024      1752.80024        28.70024
R05  21932246.13525     -1402.72725        30.30025
R24  20459797.49025      -964.43525        35.40025
R17  20495703.93326      3133.67626        37.10026
R04  22761426.50624     -3604.90024        27.80024
C60  38497107.82024       -35.05024        26.60024
C59  37309656.57625       -49.80025        30.50025
C44  22208574.73726      -680.21526        38.00026
C43  26155464.76225      3391.44025        31.80025
C41  26114493.02625      -890.90925        34.10025
C39  35785884.36126       -95.36326        38.20026
C35  25503750.73426     -2723.51426        38.40026
C34  22552147.38726      2388.12926        40.60026
C33  25929741.42724     -2324.60024        26.90024
C26  24875680.43823     -1906.90023        22.50023
C25  23298224.68825      1968.28925        33.60025
C24  21837982.39326      -140.00926        40.40026
C16  35817610.79726       239.20626        36.60026
C12  22146129.16726       960.20826        37.30026
C11  24355403.81825      3239.84925        32.70025
C09  36505445.91925       637.76425        35.00025
C06  35583514.25925       236.15125        33.50025
C03  36829603.11025         2.70025        33.40025
E02  23921167.63425      -446.35325        31.80025
E03  26486028.81725     -2920.60825        30.40025
E07  26238302.51525      1194.94725        29.60025
E08  24614265.61223     -1356.85023        18.10023
E11  27117048.77123      -591.75023        22.80023
E25  26644800.10226     -1596.98426        35.70026
E30  25636963.51325      1136.51925        31.40025
E34  27015604.10024      2858.85024        26.90024
E36  25817972.50323      1594.75023        23.00023
> 2024 12 14 07 29 30.4197349  0 46                      
G07  24348528.02524      3183.77724        28.70024
G08  20444711.28125      1754.17525        32.50025
G09  22080005.69126        47.62226        40.60026
G16  21223182.65725     -1515.48225        32.00025
G18  25149121.68624     -1622.05024        24.40024
G21  23890208.91325      3773.09525        33.00025
G26  22947337.64926     -2126.93926        36.30026
G27  19902732.38625      -508.01825        34.20025
G31  23024443.67025     -2748.09225        34.20025
J02  39319673.81725      -138.13625        30.80025
J03  37065150.59125       111.90825        31.00025
J04  36812630.30725      -291.84825        30.90025
R14  20583013.03725      -440.87225        34.60025
R15  21097989.32725      1753.57925        30.80025
R05  21932499.70726     -1400.96626        36.00026
R24  20459986.30726      -961.08826        37.90026
R17  20495118.08625      3134.62725        32.50025
R04  22762075.20425     -3602.56225        31.10025
C60  38497102.97124       -16.75024        27.10024
C59  37309652.62626        -3.85026        35.50026
C44  22208708.69225      -677.84625        34.60025
C43  26154805.46625      3392.88025        34.20025
C41  26114669.55124      -887.95024        29.10024
C39  35785901.69625       -92.52925        33.70025
C35  25504275.31824     -2722.10024        29.10024
C34  22551689.55126      2390.47126        39.60026
C33  25930180.57024     -2324.35024        27.20024
C25  23297848.69625      1968.86825        29.90025
C24  21838014.41826      -137.52626        39.80026
C16  35817567.57525       241.90725        34.10025
C12  22145943.24325       962.10525        32.70025
C11  24354781.99626      3241.22426        35.80026
C09  36505326.54925       640.39125        34.00025
C06  35583472.23525       238.36725        32.90025
C04  38499185.62924       -44.20024        26.00024
C03  36829603.65726        13.90026        36.10026
C01  37569190.75124         6.45024        29.20024
E02  23921249.42424      -443.42424        29.40024
E03  26486576.18525     -2918.40125        32.30025
E07  26238056.93225      1197.64425        29.50025
E08  24614553.06023     -1372.30023        22.90023
E11  27117159.34224      -597.10024        26.70024
E25  26645101.64125     -1591.58525        34.70025
E30  25636765.29725      1138.98925        33.70025
E34  27015063.52125      2861.29725        30.00025
E36  25817683.45024      1595.94124        27.40024
> 2024 12 14 07 29 31.4197349  0 44                      
G07  24347974.44925      3183.46725        34.60025
G08  20444389.14525      1754.86025        30.60025
G09  22079994.43926        49.69126        40.40026
G16  21223454.70926     -1514.34126        35.50026
G21  23889532.72124      3772.70024        27.90024
G26  22947746.10726     -2127.56026        38.10026
G27  19902824.56225      -507.48125        35.00025
G31  23024961.55225     -2745.84525        32.80025
J02  39319712.03025      -139.56025        34.90025
J03  37065109.35923       113.25023        23.40023
J04  36812693.70325      -289.96425        29.70025
R14  20583107.01226      -442.77226        35.80026
R15  21097644.10625      1756.06725        30.10025
R05  21932741.48026     -1399.16726        36.30026
R24  20460169.02026      -961.74726        35.80026
R17  20494521.63925      3134.27325        31.40025
R04  22762758.57124     -3603.15024        25.70024
C60  38497100.41324        -4.25024        26.90024
C59  37309651.56626       -16.45026        35.60026
C44  22208842.23926      -677.76126        38.90026
C43  26154165.84825      3395.57425        32.60025
C41  26114861.85824      -887.20024        29.10024
C39  35785922.22225       -92.03025        33.50025
C35  25504813.28625     -2719.36925        31.70025
C34  22551231.90825      2391.44025        35.20025
C33  25930639.09324     -2326.50024        29.00024
C26  24876437.50123     -1897.00023        22.10023
C25  23297462.10325      1972.56425        29.90025
C24  21838033.14525      -136.48025        34.50025
C16  35817513.15225       242.16125        33.70025
C14  26417149.18923     -2493.05023        21.00023
C12  22145762.00925       962.98925        33.90025
C11  24354149.87426      3242.78126        36.40026
C09  36505201.37625       642.22325        35.30025
C06  35583425.30825       239.50625        30.30025
C03  36829606.49525        24.50025        34.40025
E02  23921331.70724      -442.40024        27.20024
E03  26487131.54126     -2916.46926        35.90026
E07  26237825.33225      1197.73825        31.20025
E11  27117276.10124      -592.31824        29.10024
E25  26645403.67226     -1592.88226        36.30026
E30  25636531.59925      1138.56525        29.60025
E34  27014519.83824      2864.81624        28.20024
E36  25817382.29924      1597.14824        26.40024
> 2024 12 14 07 29 32.4197349  0 45                      
G07  24347331.07325      3182.39225        34.10025
G08  20444047.66025      1754.48425        30.20025
G09  22079986.32326        48.02726        37.10026
G16  21223746.08625     -1515.84725        34.40025
G18  25149734.88123     -1618.95023        21.70023
G21  23888769.72924      3768.55024        24.60024
G26  22948145.40926     -2126.84526        36.20026
G27  19902924.07225      -508.66825        31.50025
G28  25460159.47823     -3280.05023        21.80023
G31  23025481.07125     -2747.59225        33.10025
J02  39319732.69525      -139.61525        34.10025
J03  37065099.74525       113.03325        32.80025
J04  36812745.54624      -291.30024        26.50024
R14  20583186.73626      -442.66026        36.90026
R15  21097337.09724      1755.15024        28.30024
R05  21933012.17126     -1401.04126        35.90026
R24  20460345.87726      -963.12626        36.80026
R17  20493950.81325      3133.64125        30.20025
R04  22763360.53324     -3606.20024        27.30024
C60  38497099.19324        -2.15024        26.70024
C44  22208969.33026      -678.79926        39.20026
C43  26153541.66025      3395.48725        33.60025
C41  26114998.24324      -886.10024        28.60024
C39  35785936.89125       -94.08525        31.50025
C35  25505317.51625     -2719.45325        29.90025
C34  22550772.60526      2390.63826        37.50026
C33  25931075.86924     -2320.25024        27.40024
C26  24876788.83724     -1902.40024        23.70024
C25  23297087.34225      1971.17025        32.80025
C24  21838068.20026      -136.85826        38.20026
C16  35817464.56525       241.71125        31.50025
C14  26417631.23424     -2493.00024        24.70024
C12  22145572.81924       961.30024        27.10024
C11  24353545.17125      3242.30125        34.40025
C09  36505085.03525       640.67725        34.70025
C06  35583377.62025       239.99825        29.90025
C03  36829605.87425        -0.45025        33.70025
E02  23921423.72325      -442.90525        30.20025
E03  26487690.63324     -2915.35024        26.60024
E07  26237594.47125      1197.10025        34.20025
E11  27117378.90925      -596.60125        32.80025
E25  26645708.54026     -1593.23526        38.80026
E30  25636324.42225      1139.29225        34.80025
E34  27013974.49424      2862.56624        29.20024
E36  25817065.99724      1596.58924        23.70024
> 2024 12 14 07 29 33.4197349  0 45                      
G04  21417731.78224     -1463.40024        25.80024
G07  24346714.29025      3179.73725        30.90025
G08  20443702.48925      1750.96625        34.30025
G09  22079973.32226        44.66726        36.50026
G16  21224034.37626     -1519.42226        38.10026
G18  25150070.83824     -1623.40024        24.60024
G26  22948555.11526     -2130.67226        36.10026
G27  19903025.29225      -511.17225        32.30025
G31  23026010.99425     -2749.78025        30.20025
J02  39319773.05726      -141.93626        37.60026
J03  37065081.04824       109.05024        28.10024
J04  36812818.58524      -293.26924        29.40024
R14  20583260.37526      -445.68026        37.20026
R15  21096964.04525      1752.41725        29.50025
R05  21933297.76324     -1404.55024        28.60024
R24  20460524.74326      -967.35226        38.70026
R17  20493342.72324      3128.50024        24.20024
R04  22764090.71723     -3606.10023        22.30023
C60  38497096.98424         5.85024        26.60024
C44  22209101.72826      -681.72626        40.60026
C43  26152890.10023      3396.85023        23.20023
C41  26115130.04125      -890.59525        32.50025
C39  35785955.36826       -95.65826        38.70026
C35  25505849.23725     -2723.64625        35.10025
C34  22550302.42025      2388.82025        32.90025
C33  25931501.46425     -2326.26625        29.50025
C26  24877188.35024     -1903.80024        27.20024
C25  23296709.49325      1968.26725        31.00025
C24  21838097.46926      -140.44026        39.70026
C16  35817423.98325       239.25525        35.40025
C14  26418078.11424     -2495.70024        24.20024
C12  22145392.83325       958.72125        31.20025
C11  24352916.09625      3240.26025        33.60025
C09  36504962.01024       634.85024        29.00024
C06  35583317.85125       236.43725        31.50025
C04  38499172.14724         1.75024        24.70024
C03  36829604.86426         8.60026        35.50026
C01  37569173.07224        26.00024        29.40024
E02  23921502.75825      -445.69625        32.70025
E03  26488222.65423     -2923.70023        22.50023
E07  26237369.81625      1193.83525        35.40025
E11  27117484.92525      -598.95725        33.20025
E25  26646027.10926     -1596.07126        36.70026
E30  25636100.66626      1136.99626        35.60026
E34  27013436.25724      2860.84724        28.10024
> 2024 12 14 07 29 34.4197349  0 41                      
G07  24346133.52725      3180.01725        29.90025
G08  20443370.25424      1750.69524        29.30024
G09  22079971.15926        44.31326        37.90026
G16  21224335.30326     -1519.15226        35.60026
G18  25150360.97224     -1624.20024        26.80024
G21  23887423.48523      3777.10023        20.20023
G26  22948957.07226     -2130.88226        39.80026
G27  19903119.96126      -512.24926        36.90026
G31  23026537.96425     -2750.20525        33.40025
J02  39319796.37625      -141.17125        33.40025
J03  37065079.48425       111.16625        31.00025
J04  36812835.30924      -292.40024        26.20024
R14  20583347.84926      -445.77826        36.80026
R15  21096634.20924      1751.93824        29.00024
R05  21933530.93724     -1404.50024        26.40024
R24  20460715.64626      -968.70326        38.30026
R17  20492801.83324      3131.80024        23.50024
C60  38497105.31324         0.25024        25.90024
C59  37309675.95324       -30.65024        28.30024
C44  22209232.97227      -682.37827        44.10027
C43  26152221.19924      3394.95024        25.40024
C41  26115306.85425      -890.99225        32.70025
C39  35785974.19026       -96.01526        38.80026
C35  25506364.51625     -2723.87325        34.70025
C34  22549850.26825      2387.69825        33.70025
C33  25931961.88124     -2326.99124        29.30024
C26  24877528.55024     -1905.95024        25.60024
C25  23296331.09024      1967.45024        27.50024
C24  21838117.79026      -140.43926        36.60026
C16  35817378.94925       239.08725        31.30025
C12  22145214.69125       958.29925        29.70025
C11  24352301.15724      3238.60024        28.60024
C09  36504840.82925       637.70025        34.10025
C06  35583273.11724       236.35024        28.30024
E02  23921592.03125      -445.80125        34.70025
E03  26488785.00024     -2920.35624        26.70024
E07  26237134.71425      1192.97725        35.10025
E11  27117595.78425      -598.88425        30.80025
E25  26646324.13825     -1595.69625        33.20025
E30  25635884.15126      1136.79326        38.70026
E34  27012898.36424      2860.74024        24.80024
> 2024 12 14 07 29 35.4197350  0 45                      
G07  24345557.76725      3176.55125        31.20025
G08  20443081.99425      1748.64625        30.20025
G09  22079984.49025        39.88125        31.50025
G16  21224639.43325     -1522.73625        34.40025
G18  25150664.20324     -1622.15024        23.90024
G21  23886649.86225      3770.66425        30.40025
G26  22949397.60825     -2133.89825        33.90025
G27  19903244.21625      -516.45425        34.60025
G31  23027081.92825     -2750.73425        33.10025
J02  39319839.08725      -143.53625        30.80025
J03  37065058.63925       110.27625        32.50025
J04  36812941.27725      -293.69925        33.70025
R14  20583476.30125      -449.07725        35.20025
R15  21096355.24324      1747.20024        28.80024
R05  21933837.16625     -1408.06025        33.40025
R24  20460933.13626      -972.26826        35.50026
R17  20492228.77125      3126.13525        33.10025
R04  22765471.93724     -3609.50024        24.90024
C60  38497129.13824         8.40024        25.60024
C44  22209397.69926      -687.19026        37.20026
C43  26151610.96224      3394.75024        26.70024
C41  26115538.13526      -896.88626        36.30026
C39  35786025.29625       -97.86025        29.80025
C35  25506924.96925     -2727.69125        31.40025
C34  22549426.50226      2385.59926        38.70026
C33  25932421.60424     -2332.95024        27.20024
C26  24877919.62024     -1910.55024        24.00024
C25  23295982.87225      1966.46025        29.70025
C24  21838176.09126      -145.25326        38.60026
C16  35817362.90125       235.11325        34.00025
C14  26419091.48923     -2492.85023        22.60023
C12  22145054.14425       954.52425        33.40025
C11  24351701.71326      3238.91626        35.50026
C09  36504740.24025       634.42625        31.40025
C06  35583273.25825       233.48525        31.80025
